id,name,ele,lng,lat,flights,top_pilot,top_dist
414760065,Dufourspitze,4634,7.866751000000001,45.9369096,2,michael witschi,34.42 km
3114843125,Dunantspitze,4632,7.8680738,45.9368939,2,michael witschi,34.42 km
1373112888,Grenzgipfel,4618,7.8685613,45.9367278,2,michael witschi,34.42 km
1243390246,Nordendspitze,4609,7.8699282,45.9419935,0,,
365064325,Zumsteinspitze,4562,7.871407700000001,45.932165600000005,0,,
2428064302,Punta Gnifetti,4554,7.87678,45.926839400000006,5,dario sottile,31.78 km
1350577339,Dom,4545,7.858871300000001,46.093929300000006,0,,
852677837,Liskamm Ostgipfel,4527,7.835569400000001,45.9224807,0,,
26865131,Weisshorn,4505,7.7161432,46.101233,1,Josef Kleint,6.08 km
359937155,Täschhorn,4490,7.857194600000001,46.0834343,0,,
393171421,Liskamm Westgipfel,4479,7.823248700000001,45.926481300000006,1,Martins Sudars,11.34 km
26863664,Matterhorn,4478,7.6585657,45.976451000000004,0,,
3075889258,Grand Gendarme,4468,7.862046800000001,46.0959063,0,,
401234281,Parrotspitze,4443,7.871055200000001,45.919788100000005,0,,
2304704033,Sattelkuppe,4430,7.828980400000001,45.9254027,0,,
1436639948,Dent Blanche,4358,7.611930500000001,46.034176300000006,1,laurent monneron,18.15 km
401234280,Ludwigshöhe,4344,7.863483100000001,45.916714000000006,1,ivan riverso,11.36 km
852632164,Cima di Scoperta,4335,7.843688500000001,45.9217384,0,,
359935435,Nadelhorn,4327,7.8640606,46.108879200000004,0,,
918916064,Nadelhorn Vorgipfel,4325,7.8640083,46.109026400000005,0,,
26863013,Grand Combin de Grafeneire,4314,7.2992242,45.9375756,1,Martin Jansa,12.53 km
1373126284,Lenzspitze,4294,7.8686568,46.1045505,0,,
653902561,Finsteraarhorn,4274,8.1261135,46.5373468,0,,
2304704034,Naso del Liskamm,4272,7.835067400000001,45.9167093,1,Edoardo Colombo,10.95 km
470376526,Aiguille du Croissant,4260,7.301235500000001,45.940668300000006,0,,
3651057032,Pic Tyndall,4241,7.6536546,45.9742869,0,,
566646173,Stecknadelhorn,4241,7.8595021,46.1114995,0,,
364072386,Castor,4228,7.7932734,45.920849100000005,0,,
364956853,Zinalrothorn,4221,7.6901292,46.064788,0,,
251403667,Hohberghorn,4219,7.8538829,46.1125484,0,,
512696415,Alphubel,4206,7.863854900000001,46.062876700000004,7,Nadine Weder,12.23 km
26864448,Rimpfischhorn,4198,7.883960900000001,46.0231331,0,,
26862474,Aletschhorn,4195,7.993211700000001,46.465198,2,Gerald Kernstock,18.21 km
316985761,Strahlhorn,4190,7.902170300000001,46.0131498,1,Michael Grünebach,11.67 km
493697551,Combin de Valsorey,4184,7.290191900000001,45.9380133,0,,
2304704014,Entdeckungsfelsen,4178,7.8516775,45.920991900000004,0,,
3018567025,Punta Felik,4174,7.7981461,45.918201700000004,0,,
26862776,Dent d'Hérens,4171,7.605034900000001,45.9699788,0,,
365064161,Breithorn Occidentale / Westgipfel,4164,7.7476801,45.9410548,21,Joel Fuchs,173.34 km
1356298379,Breithorn Centrale,4159,7.756772700000001,45.938774300000006,1,Michael Grünebach,13.16 km
1435708318,Jungfrau,4158,7.962590700000001,46.5367739,10,Julian Daenzer,85.10 km
512050064,Bishorn,4153,7.714961100000001,46.117921800000005,10,Stanley Carron,27.36 km
1356298439,Breithorn Orientale / Ostgipfel,4139,7.767110000000001,45.9374994,0,,
470375295,Combin de la Tsessette,4135,7.311132300000001,45.9428841,1,Michael Grünebach,7.94 km
1768938306,Punta Burnaby,4135,7.718024300000001,46.118692200000005,10,Stanley Carron,27.36 km
1372219824,Mönch,4107,7.9972694,46.5584987,8,Julian Beermann,61.27 km
1356298598,Gemello del Breithorn,4106,7.7703575,45.9358378,0,,
1725081208,Grand Gendarme,4097,7.610644400000001,46.0297672,0,,
364072387,Pollux,4092,7.7853104,45.927807900000005,0,,
2304704015,Felikhorn,4087,7.8039902,45.9166486,0,,
1372222163,Schreckhorn,4078,8.118194800000001,46.589882200000005,0,,
1356298568,Roccia Nera,4075,7.775131300000001,45.932703700000005,1,Martins Sudars,11.85 km
393169561,Ober Gabelhorn,4073,7.667598600000001,46.0380363,0,,
653878194,Grosses Fiescherhorn,4048.8,8.0607641,46.5514079,0,,
26864284,Piz Bernina,4048.6,9.9080521,46.3824278,0,,
476715219,Gross Grünhorn,4043,8.0777664,46.5320308,0,,
413907884,Lauteraarhorn,4042,8.128207,46.5832664,0,,
359938396,Dürrenhorn,4035,7.848225200000001,46.1196501,1,Michael Grünebach,14.70 km
316985775,Allalinhorn,4027,7.894584200000001,46.0460858,23,Franz Iseli,39.05 km
476715213,Hinter Fiescherhorn,4025,8.06756,46.5464682,0,,
26865133,Weissmies,4023,8.012056900000001,46.127633,13,Michael Küffer,36.47 km
1372733256,La Spedla,4020,9.9073907,46.380917200000006,0,,
6359240332,L'Epaule du Rothorn,4016,7.6875983,46.069394700000004,1,Antoine Wicki,44.89 km
957182171,Lagginhorn,4010,8.003090400000001,46.157045000000004,0,,
470896703,Piz Zupò,3996,9.9312758,46.368250800000006,0,,
393165511,Adlerhorn,3988,7.887340000000001,46.009912,0,,
1373133845,Fletschhorn,3985,8.0024951,46.1671063,0,,
653878066,Gletscherhorn,3983,7.9674301,46.5128743,0,,
4927220033,P3981,3981,8.06831,46.5443141,0,,
1373124704,Schalihorn,3974,7.704946400000001,46.084425700000004,0,,
2459510861,Rottalhorn,3972,7.966898100000001,46.532107100000005,1,Marc Fragnière,18.51 km
1372733126,Piz Scerscen,3971,9.9007556,46.378387200000006,0,,
31664302,Eiger,3970,8.0054694,46.5776321,0,,
393172219,Grand Cornier,3969,7.6115672,46.0521309,0,,
658421819,Ebnefluh/Äbeni Flue,3962,7.953371400000001,46.5080341,0,,
653902769,Agassizhorn,3953,8.1141679,46.546567700000004,0,,
3626564510,Piz Argient,3945,9.9249825,46.3660745,0,,
1372732924,Piz Roseg,3937,9.883275300000001,46.3736139,0,,
26862559,Bietschhorn,3934,7.850819800000001,46.391572200000006,0,,
505804678,Trugberg,3933,8.0150095,46.544379600000006,0,,
251404315,Ulrichshorn,3925,7.876530900000001,46.1177635,2,Vera Polaschegg,8.07 km
1372732951,Bellavista Hauptgipfel,3922,9.9323045,46.373716200000004,0,,
413427324,Schneekuppe,3921,9.8793738,46.376181900000006,0,,
7276498082,Punta Bianca,3918,7.613219600000001,45.970578200000006,0,,
476715217,Klein Grünhorn,3913,8.073776500000001,46.5368964,0,,
26863045,Grosses Wannenhorn,3906,8.0973288,46.4933983,0,,
1814350827,Punta Perazzi - Perazzispétz,3906,7.7936795,45.9116347,0,,
3042780282,Wellenkuppe,3903,7.678045900000001,46.0420713,0,,
290497894,Aiguille d'Argentière,3901,7.0199726,45.959558900000005,0,,
499575044,Piz Palü,3900,9.960115400000001,46.378798,11,Dino Scheidegger,29.48 km
1373112102,Gobba di Rollin,3899,7.735114200000001,45.9240306,3,Joel Fuchs,103.36 km
1372214030,Mittaghorn,3892,7.932657700000001,46.4982071,0,,
566646174,Chli Dirruhorn,3890,7.8471761,46.122260000000004,0,,
1372732988,Bellavista Mittelgipfel West,3890,9.9344614,46.3748487,0,,
804913107,Feechopf,3888,7.883385400000001,46.0486158,0,,
1372733005,Bellavista Mittelgipfel Ost,3888,9.9376995,46.375777400000004,1,Olivier Anken,9.52 km
241018688,Klein Matterhorn,3883,7.730001400000001,45.9384108,39,Joel Fuchs,189.87 km
499575059,Piz Palü Ostgipfel,3882,9.964665100000001,46.3789548,0,,
2401785474,Fiescher Gabelhorn,3876,8.0842554,46.5024158,0,,
26863486,La Ruinette,3875,7.400272,45.9791686,0,,
1372732761,Crast' Agüzza,3872,9.9170057,46.3703425,0,,
458278706,Mont Blanc de Cheilon,3870,7.417229300000001,45.993570500000004,0,,
1372732920,Roseg Pitschen,3868,9.8861104,46.3732478,0,,
2478781150,Chamm,3866,8.0790042,46.5018369,0,,
7195966005,Crête Nord de Moming,3862,7.699741400000001,46.077628100000005,0,,
476715223,Grünegghorn,3860,8.074774,46.526729800000005,0,,
526988406,Schönbühlhorn,3854,8.091362100000001,46.4981768,0,,
7276498083,Punta Carrel,3841,7.615971600000001,45.971338800000005,0,,
4993486653,Dents des Bouquetins - Sommet Central,3838,7.545454200000001,45.9822609,0,,
8398131979,Tour Noir,3836,7.037426900000001,45.948840000000004,0,,
1384830653,Brunegghorn,3833,7.7458955,46.1257529,0,,
4401592902,Dents des Bouquetins - Faux Sommet,3824,7.545801900000001,45.982885800000005,0,,
499575032,Piz Spinas,3823,9.952759200000001,46.3793014,2,angelo giudici,9.87 km
26864059,Nesthorn,3822,7.924273200000001,46.412447300000004,0,,
1373111975,Mont Dolent / Monte Dolent,3820,7.0461849,45.921985500000005,0,,
401234364,Jägerhorn,3815,7.8771753,45.952564100000004,0,,
1373128939,Rottalhorn,3815,8.002702300000001,46.124907,2,Jerry Berchtold,14.48 km
344668897,Dreieckhorn,3811,8.0199222,46.478170000000006,0,,
1373115476,Cima di Jazzi,3803,7.894396800000001,45.9808809,0,,
401234366,Fluchthorn,3802,7.9154777,46.021213,0,,
943826720,Tête de Valpelline,3802,7.5816651,45.9746182,0,,
7276519585,Punta Maquignaz,3801,7.617001500000001,45.971300500000005,0,,
1372733072,Bellavista Ostgipfel,3799,9.9438103,46.3775484,0,,
344668869,Schinhorn,3796,7.946368400000001,46.4517426,0,,
1373129878,Balfrin,3795,7.8802602,46.1351457,0,,
393169563,Pointe de Zinal,3790,7.6304632,46.027209400000004,0,,
1373115635,La Serpentine,3789,7.4332688,45.9843361,0,,
290497839,Pigne d'Arolla,3787,7.4551458,45.9913431,4,Michel Berset,15.09 km
658836542,Breithorn,3784,7.8937404,46.4189747,0,,
1373130189,Balfrin Nordwestgipfel,3783,7.8750843,46.1387561,0,,
392334657,Breithorn,3780,7.877245100000001,46.4784786,0,,
4292824615,Dents des Bouquetins - Sommet Nord,3779,7.5447591,45.9875416,0,,
506243884,Louwihorn,3773,7.967379800000001,46.527076400000006,0,,
7274427713,Pointe Isabelle Nord / Punta Isabella Nord,3761,7.0182171,45.9143064,0,,
658419992,Kleines Aletschhorn,3755,7.9765008,46.467535100000006,0,,
653877997,Grosshorn,3754,7.910078800000001,46.486975900000004,0,,
8398131971,Aiguille de l'A Neuve,3753,7.036679400000001,45.952860400000006,0,,
412527088,Piz Morteratsch,3751,9.9015264,46.402496000000006,0,,
1373122822,Kinhorn,3750,7.833943,46.077108100000004,0,,
393169562,Mont Durand,3744,7.650746900000001,46.033852800000005,0,,
506243886,Kranzberg,3742,7.980681000000001,46.522094800000005,0,,
858518162,Nässihorn,3741,8.1111842,46.594597400000005,0,,
566646172,Hohgwächte,3740,7.8410631,46.1036359,0,,
344668880,Geisshorn,3740,8.0051477,46.441174200000006,0,,
393169560,Trifthorn,3737,7.6782417,46.0521984,0,,
307195579,Aiguille de Talèfre,3730,7.0037821,45.899499000000006,0,,
26863749,Mont Vélan,3727,7.251470800000001,45.8919362,2,Grimpereau Desbois,10.37 km
656427737,Sattelhorn,3723,7.9638714,46.468066900000004,0,,
290497864,Combin de Corbassière,3716,7.280463800000001,45.978128700000006,0,,
26863472,L'Evêque,3716,7.5027502,45.9644075,0,,
7276514779,Testa del Leone,3715,7.643659700000001,45.9713082,0,,
7276444703,La Sengla Centrale,3714,7.472645000000001,45.943040700000005,0,,
7276444702,La Sengla Sud,3714,7.4738949,45.9409964,0,,
964762762,La Sengla Nord,3714,7.4717801,45.945753200000006,0,,
393169669,Tête Blanche,3710,7.5753265,45.9865879,0,,
476462649,Tournelon Blanc,3707,7.321812100000001,45.969683,0,,
538371124,Kleines Wannenhorn,3706,8.1046797,46.483153300000005,0,,
26863705,Mittelhorn,3704,8.124744100000001,46.635097800000004,0,,
7276498084,Punta Maria Cristina,3704,7.620369,45.9722224,0,,
290497840,Le Pleureur,3703,7.369110600000001,46.0162844,1,Michèle Lettingue,12.59 km
830402371,Rotstock,3699,8.0014181,46.435365100000006,0,,
31664301,Balmhorn,3698,7.693554400000001,46.4249785,9,Klaus Jordan,21.67 km
2683854598,Silberhorn,3695,7.949257800000001,46.541872600000005,0,,
3019936333,Tête de Milon,3693,7.690336100000001,46.1185312,0,,
653878178,Walcherhorn,3693,8.035027300000001,46.5599876,0,,
344627857,Wetterhorn,3692,8.114609900000001,46.6388477,1,Marc Schori,13.26 km
401457560,Rosenhorn,3689,8.1372459,46.6318799,0,,
964762758,Gran Becca Blanchen,3680,7.474883800000001,45.9365803,0,,
7165008398,Aiguilles Rouges du Dolent - Pointe Kurz,3680,7.035766700000001,45.9385667,0,,
1373114450,Grosses Fillarhorn,3676,7.8811279,45.963746500000006,0,,
1725081207,Dent de Perroc,3676,7.5231903,46.0392895,0,,
458278709,La Salle,3675,7.371945200000001,46.0236801,1,Sacha Burri,28.94 km
2210501435,Pointe des Genevois,3674,7.525938900000001,46.0371092,0,,
4292824613,Mitre de l'Eveque,3672,7.5064041,45.9688414,0,,
4401592903,Tête de Chavanne,3671,7.564795200000001,45.9863828,0,,
4292824616,Dents des Bouquetins - Sommet Sud,3670,7.5421604,45.977841500000004,0,,
813879778,Aiguille de la Tsa,3668,7.522321000000001,46.0214288,0,,
6312211537,P3667,3667,7.6903117,46.4246428,9,Klaus Jordan,21.67 km
3029801348,Besso,3667,7.6587807,46.0777578,0,,
4401607325,Pointe Nord des Douves Blanches,3664,7.5214904,46.0181899,0,,
343439355,Combin de Boveire,3663,7.2707397,45.964902300000006,0,,
290497860,Petit-Combin,3663,7.2677215,45.983841500000004,5,Lionel Troillet,40.65 km
26862594,Blümlisalphorn,3663,7.772511300000001,46.4888959,0,,
6359240322,Blanc de Moming,3660,7.6644955,46.0737036,1,Antoine Wicki,21.52 km
503688535,Pointe de Pré de Bar Est,3658,7.03817,45.921294200000006,0,,
3980816775,Breitlauihorn,3655,7.880627700000001,46.4127133,0,,
307242905,Pizzo d'Andolla,3654,8.0347232,46.100851500000005,0,,
6359240291,Dôme,3650,7.666955700000001,46.0716538,1,Antoine Wicki,21.52 km
2526317227,Wyssi Frau,3650,7.783168300000001,46.4928534,0,,
307195602,Pointe du Domino / Punta del Domino,3648,7.031058600000001,45.920621100000005,0,,
4993486810,Blanche de Perroc,3648,7.5234031,46.0416782,0,,
3980816776,Gredetschhorli,3646,7.909697700000001,46.411858200000005,0,,
26862464,Aiguilles Rouges d'Arolla,3646,7.434648,46.0567725,0,,
26862792,Doldenhorn,3643,7.7349373,46.4685227,0,,
4401607324,Pointe Sud des Douves Blanches,3642,7.5210115,46.015333500000004,0,,
1373116117,Neue Weisstorspitze,3641,7.906107400000001,45.9925986,0,,
653902617,Studerhorn,3638,8.1469325,46.5330285,0,,
290522955,Mont Collon,3637,7.507720000000001,45.977281500000004,0,,
1373114762,Cima Brioschi,3635,7.8790478,45.9702647,0,,
470886802,Aiguille du Vélan,3634,7.2438444,45.8985484,0,,
1372223240,Bärglistock,3630,8.1407395,46.615071500000006,0,,
26862764,Dammastock,3630,8.4210603,46.643412600000005,0,,
413493885,Altels,3629,7.678601,46.428958800000004,0,,
601525417,Oberaarhorn,3629,8.1745239,46.5314515,0,,
475982782,Aiguille de Boveire,3629,7.267254800000001,45.976784,0,,
830402796,Grosses Fusshorn,3627,7.9977875,46.430769700000006,0,,
3018568584,Torre di Castelfranco,3627,7.8794668,45.9728958,0,,
1244934123,Morgenhorn,3627,7.7921737,46.495286400000005,0,,
1887921008,Gross Bigerhorn,3626,7.870432900000001,46.1451575,0,,
470886539,Combin du Meitin,3622,7.2777276,45.9372185,0,,
3012035872,Corni del Velan,3621,7.256820200000001,45.8882044,0,,
566646178,Schwarzhorn,3620,7.882519100000001,46.109577,1,Friedrich Bloße,14.83 km
26864931,Tödi,3614,8.9148592,46.8111534,5,Patrick Dünser,20.66 km
4993486651,Pointe Barnes,3612,7.5414745,45.9762945,0,,
647370017,Üssers Barrhorn,3610,7.734028,46.155915,8,pascal Amacker,24.21 km
1725337237,Grande Fourche,3610,7.0210454,45.976382900000004,0,,
307219462,Schwarzberghorn,3609,7.908696000000001,45.996967100000006,0,,
3019919607,Les Diablons,3609,7.671115400000001,46.1424096,1,Joel Fuchs,32.87 km
2739732467,Pointe de Pré de Bar Est,3608,7.0346514,45.9212068,0,,
3336324789,Schneestock,3608,8.4219431,46.647891800000004,0,,
412731767,Piz Cambrena,3607,9.977714800000001,46.3872884,0,,
1373135736,Senggchuppa,3606,7.995370200000001,46.1790728,0,,
616718873,Ankenbälli,3601,8.1460557,46.6116,0,,
1373128447,P3597,3597,8.017917200000001,46.1215251,0,,
1373120142,P3597,3597,7.8995848,46.0523892,1,Markus Fiechter,7.03 km
317003742,Wyssnollen,3595,8.088301600000001,46.5094014,0,,
1372732187,Piz Glüschaint,3594,9.8400754,46.3624656,0,,
5152599350,Üssers Barrhorn Nord,3592,7.735437200000001,46.156445700000006,8,pascal Amacker,24.21 km
7276432446,Piccola Becca Blanchen,3591,7.471338800000001,45.933967900000006,0,,
660745598,Rhônestock,3589,8.4203051,46.633259,0,,
813879784,Dent de Tsalion,3589,7.5232187,46.024117600000004,0,,
470375175,Gran Testa di By,3588,7.297819,45.9201047,0,,
286930137,Galenstock,3586,8.4169961,46.6126458,3,Andrea Voumard,45.73 km
1373113853,Fillarjoch,3586,7.8755383,45.9581109,0,,
2721124363,Aiguille de L'Amône,3584,7.0417358,45.9302495,0,,
1372732299,Punta Occidentale della Sella,3584,9.8481366,46.363519700000005,0,,
647370211,Inners Barrhorn,3583,7.737223,46.149730000000005,2,Lars Meerstetter,30.85 km
830405744,Vord Geisshorn,3583,8.000993600000001,46.450611200000004,0,,
7275053365,Mont Sonadon,3577,7.294374,45.9218379,0,,
3977833821,Mont Grépillon,3576,7.0510691,45.917442300000005,0,,
1185817125,Glarner Tödi,3574,8.921818100000001,46.8106014,0,,
393172218,Pointe de Bricolla,3573,7.591745700000001,46.0625036,1,laurent monneron,26.58 km
1373126538,Portjenhorn,3567,8.0285495,46.1061982,0,,
1372732297,Punta Orientale della Sella,3564,9.851622,46.363558600000005,0,,
1373116309,Roffelhorn Westgipfel / Cima di Roffel occidentale,3563,7.9190626,45.9959028,0,,
7275442496,Pic d'Amiante,3563,7.293083200000001,45.921073400000004,0,,
1798595238,Pointes de Mourti,3563,7.586095,46.072429,0,,
1372212711,Tschingelhorn,3562,7.8482107,46.4788067,0,,
3980816779,Lonzahörner,3560,7.903745400000001,46.4235063,0,,
3695925420,Mathildespitze,3557,7.977004300000001,46.547045000000004,217,Häppy Michel,187.25 km
1372362893,Eggstock,3556,8.4182208,46.652196,0,,
290497866,Le Ritord,3556,7.2563196,45.9628485,0,,
1250575021,Petit Mont Collon,3555.5,7.4769154,45.968872600000005,0,,
1250534927,Aouille Tseuque,3554,7.4419009,45.9291871,0,,
1373149583,Monte Leone,3552,8.1101591,46.249509200000006,0,,
5954174148,Finsteraarrothorn,3549,8.1482047,46.517958300000004,0,,
566646185,Gemshorn,3548,7.8871501,46.122198000000004,0,,
458278703,La Luette,3548,7.3875618,46.010408500000004,0,,
1725081204,Dent Nord de Bertol,3547,7.538983200000001,45.997444300000005,0,,
3980816778,Lonzahörner,3547,7.9067144,46.424517300000005,0,,
412527089,Piz Tschierva,3546,9.8862774,46.4144663,0,,
290497885,Aiguille du Tour,3542,7.0100128,45.9945308,0,,
7276429908,Punta della Bouetta,3540,7.4643074,45.935363200000005,0,,
1372732140,Cima Sondrio,3539,9.8451833,46.3619415,0,,
4119504100,Diablon des Dames,3538,7.6720106,46.1372371,0,,
300982974,Bec d'Épicoune,3531,7.4223093,45.9145811,0,,
4993486654,Dent Sud de Bertol,3524,7.5362885,45.9941368,0,,
290497880,Aiguilles Dorées,3520,7.03417,45.982719800000005,0,,
26863729,Mont-Gele,3518,7.365899000000001,45.904138800000005,1,Joël Debons,10.18 km
808269549,Tiefenstock,3515,8.4216367,46.6278293,0,,
290497905,Grand Darray,3514,7.0605282,45.958974500000004,0,,
813879781,Pointe de Tsalion,3512,7.522798600000001,46.0286021,0,,
519333132,Petite Fourche,3512,7.0221096,45.980414,1,Olivier Neboit-Guilhot,8.19 km
1372732175,Piz Sella,3511,9.8683192,46.362358400000005,0,,
290497902,Grand Lui,3509,7.047896400000001,45.958234700000006,0,,
4401648183,Stier,3507,7.6966106,46.1353881,0,,
6801900438,Vorderes Galmihorn,3507,8.185072400000001,46.506485500000004,0,,
286930156,Sustenhorn,3503,8.455198900000001,46.698920300000005,2,Martin Gassner,7.18 km
1372732326,Dschimels / I Gemelli West,3501,9.860063100000001,46.3635202,0,,
1384830671,Schöllihorn,3500,7.7377076,46.1382689,0,,
1372732282,Dschimels / I Gemelli Ost,3500,9.862599900000001,46.363418700000004,0,,
4401607323,Pointe de Bertol,3499,7.5282236,46.0095812,0,,
1506069874,Punta Grober,3497,7.923531400000001,45.9212095,0,,
1250581396,Bec de la Sasse,3496,7.4587057,45.9355392,0,,
1749686878,Furggen,3492,7.6812583,45.9568184,0,,
3643123702,Becca d'Oren Ovest,3490,7.4829102,45.954022800000004,0,,
7275372849,Aiguille Verte de Valsorey,3490,7.2893764,45.917475,0,,
458861333,Pointe de Vouasson,3490,7.425433300000001,46.0715008,0,,
7276436993,Becca d'Oren Centrale,3490,7.4871638,45.9557669,0,,
1373122354,Pizzo Bottarello - Sonnighorn,3487,8.022400000000001,46.0742168,0,,
2497236698,Oeschinenhorn,3486,7.767624,46.4837154,0,,
1710017531,Fortezza,3482,9.9425497,46.384493000000006,0,,
456920789,Testa Grigia,3480,7.708073000000001,45.934135600000005,7,Laurent Borella,78.09 km
1373116461,Roffelhorn Ostgipfel / Cima di Roffel orientale,3478,7.927574000000001,45.997147000000005,0,,
290497888,Aiguille Purtscheller,3478,7.012105,45.991430300000005,0,,
1372215859,Oberaarrothhorn,3477.0,8.1806699,46.5203934,0,,
2497235768,Kleindoldenhorn,3475,7.7272585,46.4699341,0,,
401234276,Theodulhorn,3472,7.708418900000001,45.9493215,1,Sebastian Huber,22.36 km
401457561,Rosenegg,3470,8.1434236,46.6250292,0,,
1372732219,Forcola Occidentale dei Gemelli,3470,9.8563322,46.363042300000004,0,,
7276431719,Becca Làbie,3465,7.456361,45.9324547,0,,
1372221356,Strahlegghorn,3461,8.117899600000001,46.575401600000006,0,,
2399382850,Altmann,3460,8.1638,46.532000000000004,0,,
412526082,Piz Corvatsch,3458,9.8161413,46.4084924,2,Michael Rohner,120.87 km
2472024222,Scheuchzerhorn,3456,8.1904578,46.5439573,0,,
3308406393,Mittelallalin,3456,7.9048774,46.0575453,19,rene abgottspon,38.07 km
2534664966,Inner Rothorn,3455,7.981327100000001,46.1637022,0,,
4643151814,Bec de la Lya,3454,7.319339800000001,45.9807088,0,,
1372731577,Pizzo di Varuna,3453,9.99355,46.3524065,0,,
7276463737,Furgghorn,3451,7.699503600000001,45.954152,1,Philip Glutz,152.95 km
449555955,Rinderhorn,3448,7.6543245,46.4135429,0,,
1373128765,Tällihorn,3448,8.037664000000001,46.123625700000005,0,,
3643162003,Becca Chardonney,3447,7.4123314,45.909197500000005,0,,
4376099892,Hinter Tierberg,3445,8.397339,46.684018800000004,0,,
7275391849,Pointe des Luisettes,3444,7.285736600000001,45.9159224,0,,
412731773,Piz Murtèl,3442,9.8198738,46.4125978,12,Davide Grosina,156.34 km
1372731604,Piz Tremoggia,3441,9.8226311,46.3525465,0,,
3856607212,Nodo della Rayette,3440,7.4208027,45.9121017,0,,
8394948806,Aiguilles du Pissoir,3439,7.010317400000001,45.9972907,0,,
955211089,Breithorn,3438,8.083812700000001,46.2385132,0,,
26863067,Gspaltenhorn,3436,7.827270800000001,46.5115775,0,,
26864791,Stellihorn,3436,8.0010375,46.0360722,0,,
2472023571,Grunerhorn,3432,8.181296900000001,46.541289000000006,0,,
1372409882,Piz Dado,3431,8.9143644,46.8033875,0,,
7275442393,Sphinx du Valsorey,3431,7.290055000000001,45.919529600000004,0,,
2478781152,Wannenzwillinge,3430,8.1031273,46.476953400000006,0,,
2844738505,Punta Carale,3429,9.991730200000001,46.3856868,0,,
566646177,Eggfluh,3429,7.883894100000001,46.1036799,0,,
3643162006,La Rayette,3428,7.418508,45.9115557,0,,
1372409855,Stoc Grond,3422,8.9143352,46.800407500000006,0,,
473228789,Tête Blanche,3421,7.019061600000001,45.983959000000006,0,,
286930140,Gwächtenhorn,3420,8.413367000000001,46.690836000000004,1,Manuel Waldburger,20.81 km
1185812591,Bifertenstock,3419,8.9575244,46.804274500000005,0,,
1244935694,Augstkummenhorn,3419,8.021728600000001,46.069646500000005,0,,
26864295,Piz Kesch,3418,9.872776,46.621393600000005,0,,
1244934675,Mittler Tierberg,3418,8.398839800000001,46.6916378,0,,
2210501433,Grande Dent de Veisivi,3418,7.528005800000001,46.0507891,0,,
26862872,Fleckistock,3416,8.4977915,46.707347500000004,0,,
412731771,La Muongia,3415,9.8244653,46.3667346,0,,
393192181,Oberrothorn,3413,7.8127956,46.0275389,1,Martin Kläger,14.95 km
944026456,Tête Blanche de By,3413,7.315255100000001,45.9167799,0,,
5152599348,Gässispitz,3411,7.735569900000001,46.1614852,0,,
26864298,Piz Linard,3410,10.071438200000001,46.7989742,0,,
5152599345,Inners Stellihorn,3410,7.7390501,46.1670424,0,,
393167833,Mettelhorn,3410,7.741401000000001,46.055695,1,Martin Kläger,7.22 km
460428763,Pointe d'Otemma,3409,7.3977038,45.9436515,0,,
1373122176,Leiterspitzen,3409,7.820602500000001,46.0732678,0,,
658836539,Jägihorn,3407,7.8827879,46.400837300000006,0,,
5152599343,Üssers Stellihorn,3405,7.7374274,46.169767400000005,0,,
692973202,Stockhorn,3405,7.823403600000001,45.986642800000006,0,,
2472019684,Nollen,3404,8.1777601,46.5230861,0,,
1244929720,Gamserchopf,3403,7.9955505,46.1843662,0,,
26864441,Adula - Rheinwaldhorn,3402,9.0401883,46.4936488,4,Mats Schreiber,18.29 km
566646195,Schilthorn,3402,7.8905411,46.148991,0,,
943957769,Becca di Chardonney Ovest,3401,7.407543400000001,45.9084616,0,,
393192159,Unter Gabelhorn,3398,7.696781100000001,46.026192,0,,
1372230001,Wysse Nollen,3398,8.398973,46.6540503,0,,
2428041759,Cimone di Camposecco,3398,8.0239109,46.0677542,0,,
256041699,Fluchthorn,3398,10.2271003,46.891419400000004,0,,
410188492,Piz Calderas,3397,9.695983100000001,46.5364006,0,,
5153211060,Mittleres Fluchthorn,3397,10.2268606,46.893179,0,,
3012035874,Pointe du Capucin,3396,7.264670300000001,45.8937394,0,,
1798595231,Pigne de la Lé,3396,7.610763,46.082937,1,Grimpereau Desbois,5.76 km
1373127874,Trifthorn,3396,7.984284000000001,46.118647200000005,0,,
1372731986,Pizzo della Forcola Alta,3394,9.8323174,46.361085300000006,0,,
26864305,Piz Platta,3392,9.5616667,46.487222200000005,1,stefan hollenstein,5.52 km
4230084916,Sandgipfel,3390,8.923530900000001,46.8190595,0,,
7275288175,Becca des Pecons,3389,7.4271253,45.9154391,0,,
1244935631,Diechterhorn,3389,8.3605739,46.6487047,0,,
4401607322,Pointe de Chamois,3387,7.525398300000001,46.004202400000004,0,,
412526084,Il Chapütschin,3386,9.8190218,46.374534600000004,0,,
458861297,Pointe des Chamois,3384,7.3668183,46.0355986,0,,
601525435,Tieralplistock,3383,8.3752691,46.6330169,0,,
830986609,Piz Güglia,3380,9.7598949,46.490988900000005,0,,
1372732602,Gendarme,3379,9.878388900000001,46.367391500000004,0,,
2379541575,Güferhorn,3379,9.063034,46.512417000000006,0,,
1226848282,Piz D'Err,3378,9.691579200000001,46.545250200000005,0,,
566646175,Gugla,3377,7.831864100000001,46.133783,0,,
1372729301,Cima di Castello,3376,9.677282700000001,46.303591100000006,0,,
26862590,Blinnenhorn/Corno cieco,3374,8.307771800000001,46.4259107,0,,
4993486657,Pointe de la Crête du Plan,3374,7.527501600000001,46.004377100000006,0,,
566646168,Grabenhorn,3372,7.820390100000001,46.093522,0,,
459849536,Mont de l'Étoile,3370,7.4502499,46.073728700000004,14,Ludovic Maitre,37.24 km
3430028204,Tsa de l'Ano,3368,7.5733079,46.0781688,0,,
1244930493,Fründenhorn,3368,7.7574642,46.4766872,0,,
26864318,Pizzo Cengalo,3368,9.6019444,46.295,0,,
918915761,Egginer,3367,7.9301291,46.075182500000004,0,,
1387234588,Piz Arlas,3367,9.9836874,46.397360400000004,0,,
470618175,Cima di Rosso,3366,9.718516000000001,46.306421,0,,
1372730501,Piz Fora/Sassa di Fora,3364,9.7847185,46.340742500000005,0,,
1373124996,Pizzo di Loranco - Mittelrück,3363,8.030256,46.0870983,0,,
1373132857,Jegiturm,3361,7.9805346,46.158908800000006,0,,
2428071842,Cima dello Spigolo,3361,8.023680500000001,46.063608,0,,
858521196,Scheideggwetterhorn,3361,8.1152809,46.6453937,0,,
1185812590,Piz Urlaun,3359,8.9282834,46.796480300000006,0,,
7275384022,Les Champignons,3359,7.308573600000001,45.9169515,0,,
3369930841,Cima Settentrionale di Lago Spalmo,3356,10.1991443,46.3873163,0,,
458861305,Pointe du Vasevay,3356,7.3660429,46.0311783,1,Grimpereau Desbois,16.03 km
1373114661,Pointe de la Grande Arête,3355,7.5444946,45.9685003,0,,
7274592700,Punta Volluz,3355,7.0605478,45.913433100000006,0,,
606371532,Piz Boval,3353,9.9022889,46.4173799,0,,
7274891034,Mont Percé,3353,7.2846302,45.9133342,0,,
1372728824,Pizzo Torrone Occidentale,3348,9.6873915,46.2941025,0,,
3034398881,Mont de la Balme,3347,7.3740912,45.9004125,0,,
279119137,Mont Avril,3347,7.344219000000001,45.915255300000005,0,,
4643151815,Aiguille de Bocheresse,3345,7.3245488,45.9814516,0,,
444277135,Platthorn,3345,7.736399,46.053706000000005,1,Martin Kläger,7.22 km
1373116311,Steinchalchhorn / Cresta di Stenigalchi,3345,7.9326186,45.9959969,0,,
290497882,Portalet,3344,7.0580023,45.994762300000005,0,,
4993486658,Clocher de Bertol,3343,7.527517700000001,46.006787900000006,0,,
5152599114,Wasuhorn,3343,7.7490842,46.1733709,0,,
7276411384,Grand Pecon,3342,7.4343002,45.920856,0,,
1373120876,Pizzo Scarone,3342,8.026191200000001,46.0586828,0,,
7274755559,Aiguille du Dejeuner,3341,7.240530700000001,45.890041800000006,0,,
519826450,Piz Ela,3339,9.707614900000001,46.601944700000004,0,,
316288704,Rosablanche,3336,7.3542364,46.0605058,1,Grimpereau Desbois,15.51 km
7274891035,Grand Carré,3334,7.283577500000001,45.9120731,0,,
401234368,Stockhorn,3334,7.8378157,45.9856544,0,,
5896211754,Piz Picuogl,3333,9.707980800000001,46.5239697,0,,
1372728684,Pizzo Torrone Orientale,3333,9.7018543,46.2910526,0,,
1373116366,Steinchalchhorn,3333,7.937399300000001,45.9969229,1,francesca milasi,6.01 km
1373121264,Punta Banella,3330,8.0248045,46.0624381,0,,
60030574,Mont Fort,3329,7.3186695,46.0809572,3,Ferdinand Van schelven,82.33 km
616718869,Ewigschneehorn,3329,8.168691800000001,46.5968831,0,,
460428766,Dappey du Ritord,3329,7.2513201,45.962042700000005,0,,
3012035873,Mount Cordine,3329,7.268475,45.897287500000004,0,,
26864108,Oberalpstock,3328,8.7695308,46.742675600000005,0,,
1801694516,Almagellerhorn,3327,7.9942101,46.086877900000005,0,,
307271040,Monte Sissone,3327,9.714487700000001,46.292892200000004,0,,
7702678472,Porphyr,3326,8.919855100000001,46.798070900000006,0,,
1708033862,Chapütschin Pitschen,3325,9.8155689,46.3731446,0,,
3977833822,Petit Grépillon,3324,7.0618835,45.9116313,0,,
2521848973,Plattenhorn,3324,8.0074982,46.0808948,0,,
6537449558,Pointe du Crêt,3322,7.365088500000001,46.0389598,0,,
1908198600,Chli Sustenhorn,3318,8.4540764,46.710839400000005,0,,
1975493071,Fluehorn,3317,7.828310800000001,46.0232862,0,,
6800268663,Tschima da Flix,3315,9.7027768,46.522557600000006,0,,
7276427285,Petit Pecon,3314,7.432771300000001,45.9193148,0,,
6537449560,Rochers du Bouc,3314,7.3736071,46.043525100000004,0,,
1975493089,Pfulwe,3314,7.847661,46.0164704,0,,
6558684890,Olmenhorn,3314,8.0519244,46.453669700000006,0,,
1908198616,Stucklistock,3313,8.4869392,46.7168761,0,,
7275441595,Tête de Balme,3313,7.3316574,45.9107934,0,,
293238266,Piz Buin,3312,10.1188918,46.8441236,0,,
3038939860,Garde de Bordon,3310,7.5975672,46.121072600000005,0,,
1372814957,Nördliches Fluchthorn,3309,10.226134400000001,46.896638100000004,0,,
2521848967,Kanzilti,3308,8.0029965,46.0801918,0,,
5152599341,Brändjihorn,3308,7.7399265,46.172248100000004,0,,
470535187,Pizzo Badile / Piz Badile,3308,9.5865422,46.2952827,0,,
344927962,Wilerhorn,3307,7.810893900000001,46.3786324,0,,
1372221998,Hienderstock,3307,8.2182101,46.586537,0,,
470375176,Tête du Filon,3306,7.3242915,45.910276700000004,0,,
2420719667,Gletschhorn,3305,8.438377000000001,46.6198101,0,,
3008988285,Tschingelspitz,3304,7.8401965,46.5106097,0,,
1798595237,Pointe de Moiry,3303,7.576833000000001,46.084194000000004,0,,
8394948816,Aiguille du Midi des Grands,3302,7.0069276,45.9992365,0,,
26864303,Piz Paradisin,3302,10.1172543,46.4260109,0,,
26864286,Tschima da Flix - Westgipfel,3301,9.6995318,46.521752000000006,0,,
470618176,Cima di Vezzeda,3301,9.723929,46.3093298,0,,
1814350604,Becca Faudery,3301,7.374067500000001,45.8919487,0,,
459849548,Fenêtre de la Cassorte,3300,7.434114600000001,46.035549800000005,12,Bertrand Cina,38.29 km
1372807949,Verstanclahorn,3298,10.0725478,46.835055100000005,0,,
8138165163,Blüemlisalp Rothorn,3297,7.761523500000001,46.495841600000006,0,,
7274877036,Doigt du Velan,3296,7.266659400000001,45.8954266,0,,
286930152,Gross-Schärhorn,3294,8.829251000000001,46.827054000000004,0,,
26864040,Muttler,3294,10.3787789,46.900689,0,,
1372729014,Punta Rasica,3293,9.681483100000001,46.297085700000004,0,,
255852234,Hockenhorn,3293,7.744235300000001,46.4284356,11,Andy Jäggi,36.97 km
1373132326,Färichhorn,3292,7.8587521,46.155546,0,,
3203046068,Piz Frisal,3292,8.9582902,46.7989285,0,,
7276449914,Punta di Tsa de Tsan,3292,7.5451857,45.959695700000005,0,,
401457559,Hangendgletscherhorn,3291,8.1826206,46.629381200000005,0,,
1372728792,Pizzo Torrone Centrale,3290,9.6961873,46.2930732,0,,
4926328558,Corno Rosso,3289,8.3280182,46.428315500000004,0,,
1372728784,Punta Melzi,3287,9.6953212,46.2929674,0,,
241018682,Hohtälli,3286,7.802228800000001,45.9890139,1,Martin Kläger,7.31 km
5152599359,Distulberg,3285,7.746284,46.152805900000004,0,,
7276399384,Dents des Pecons,3285,7.4320082,45.9184975,0,,
1372728529,Cima della Bondasca Centrale,3283,9.622333600000001,46.287782500000006,0,,
1832042980,Ritzlihorn,3282,8.258700000000001,46.6334116,0,,
2247070293,Piz Fliana,3281,10.108881,46.827212,0,,
2950767734,Hohgleifen,3279,7.792595,46.3709257,0,,
5152599337,Rothorn,3278,7.7327643,46.1812818,0,,
26864328,Pizzo Tambo,3278,9.2833549,46.4970328,0,,
2402858321,Sciora Dadent,3275,9.6251935,46.2960274,0,,
7274878180,Le Râteau,3275,7.2819262,45.9098192,0,,
26862534,Basodino,3273,8.4684337,46.411602200000004,0,,
26863136,Helsenhorn,3272,8.191695000000001,46.304796,0,,
470618186,Colle Rasica,3272,9.685112700000001,46.2954621,0,,
4095457696,Pointe d'Orny,3271,7.0430524,46.0021402,2,Pablito Cretton,23.09 km
1373138805,Böshorn,3269,7.993183500000001,46.198878400000005,0,,
470535136,Cima della Bondasca Occidentale,3267,9.6186451,46.2871888,0,,
3732079417,Piz Üertsch,3267,9.8364089,46.5964079,0,,
286930151,Clariden,3267,8.871285700000001,46.8420253,1,Riccardo Ricci,17.55 km
8394956417,Aiguille du Génépi,3265,7.002483600000001,45.999555900000004,0,,
432435251,Scima da Saoseo,3264,10.158030400000001,46.385476600000004,0,,
330088724,Tsoume des Boucs,3263,7.402302400000001,45.913511500000006,0,,
1372728818,Punta Alessandra,3263,9.692302600000001,46.2939014,0,,
470535215,Pizzi Gemelli,3262,9.611350100000001,46.292906900000006,0,,
459849545,La Rousette,3262,7.4468705,46.036843000000005,0,,
26864293,Piz Forbesch,3262,9.5591767,46.520394800000005,0,,
26864297,Piz Languard,3261,9.9565262,46.4884433,0,,
2526340242,Wildi Frau,3260,7.7787271,46.505984500000004,1,Christoph Fässler,12.69 km
2379541574,Grauhorn,3260,9.028017,46.504904,0,,
1975494665,Spitzi Flue,3260,7.840845600000001,46.0178231,0,,
458278712,Le Parrain,3259,7.351330300000001,46.045843500000004,0,,
401457558,Renfenhorn,3259,8.1649362,46.633644800000006,0,,
5152599336,Rothorn Nord,3259,7.7352601,46.1835966,0,,
470618179,Punta Ferrario,3258,9.6953198,46.2909501,0,,
5152599339,Inners Rothorn,3258,7.7358408,46.1765236,0,,
26863114,Haute Cime,3257,6.923263,46.1611351,3,Grimpereau Desbois,20.24 km
1646037478,Kleiner Piz Buin,3255,10.1124597,46.8422015,0,,
355242348,Piz Tschütta,3254,10.342848400000001,46.9031594,0,,
393192182,Bösentrift,3253,7.8029684,46.0382802,0,,
1373130212,Sasseneire,3253,7.5249855,46.138816500000004,0,,
1372735566,Piz Misaun,3251,9.8940409,46.426328000000005,0,,
1372800308,Cavistrau Grond,3251,8.9735493,46.784370800000005,0,,
7274840683,Mont Trois Frères,3250,7.2769164,45.9008881,0,,
4803143804,Piz Jenatsch,3249,9.716563200000001,46.5425455,0,,
5152599111,Festihorn West,3248,7.756594400000001,46.176509700000004,0,,
26865142,Wildhorn,3247.6,7.3622202,46.355932300000006,2,Martin Zettler,19.66 km
26864449,Ringelspitz,3247,9.343055600000001,46.898333300000004,2,Patrick Dünser,70.46 km
1373179820,Turbhorn,3247,8.2802243,46.4080401,0,,
692973189,Rote Nase,3247,7.812453100000001,45.9871412,0,,
1372222002,Bächlistock,3247,8.2395209,46.5865887,0,,
1373133776,Platthorn,3246,7.8612342,46.166372300000006,0,,
26864302,Piz Ot,3246,9.810032000000001,46.543253500000006,0,,
1373138802,Mattwaldhorn,3246,7.955550700000001,46.198806700000006,0,,
944084064,Punta di Terrarossa / Wasenhorn,3246,8.0859111,46.2665093,0,,
470535214,Anticima Orientale,3245,9.606496,46.2942903,0,,
2402814402,Piz Bacun,3244,9.682271400000001,46.342211400000004,0,,
616718875,Hubelhorn,3244,8.206278300000001,46.585585800000004,0,,
293234228,Silvrettahorn,3244,10.0926709,46.8581117,0,,
435179302,Wildstrubel,3244,7.5284329,46.4005085,33,Felix Aegerter,63.45 km
2082169247,Schwarzhorn,3243,7.580191,46.3841772,0,,
808141925,Grossstrubel,3243,7.562539500000001,46.4128941,1,Patrik Caspar,10.92 km
416565933,Birghorn,3242.8,7.787221300000001,46.452477200000004,0,,
2418263093,Fülbärg,3242.6,8.0596701,46.5009323,0,,
435179298,Mittelgipfel,3242,7.533561000000001,46.409414700000006,1,Sandro Klopfenstein,15.37 km
1373177705,Schafbärg,3240,7.829697800000001,46.3907856,4,Michael Küffer,35.86 km
26864921,Titlis,3238,8.4377808,46.7720386,57,Daniel Moser,93.30 km
2402856275,Punta Pioda,3238,9.627345100000001,46.3029163,0,,
1373120115,Punta Loraccio,3238,8.0305589,46.0523198,0,,
1585597931,Grand Golliat,3237,7.1009948,45.859221600000005,0,,
2379541578,Läntahorn,3237,9.053805,46.517587000000006,0,,
944082935,Ofenhorn / Punta d'Arbola,3235,8.3186406,46.386407600000005,0,,
1372728725,Ago del Torrone,3234,9.7002459,46.291698800000006,0,,
2401263957,Corn da Camp,3232,10.107669300000001,46.417710400000004,0,,
966203444,La Vierge,3232,7.5180378,45.9626894,0,,
1372807567,Chapütschin,3232,10.0693415,46.8308374,0,,
458867298,Bec des Etagnes,3232,7.3164389,46.0892721,0,,
2844809093,Piz Bever,3230,9.75918,46.522400000000005,0,,
1373116471,Rothhorn / Corno Rosso,3230,7.9511571,45.9971741,0,,
1372222262,Trifthorn,3230,8.178082100000001,46.5918726,0,,
1372812170,Nördliche Augstenspitze,3228,10.203823700000001,46.864614,0,,
1373118422,Jazzihorn/Pizzo Cingino Nord,3227,8.0119171,46.0312124,0,,
3980816782,Hohstock,3226,7.962970400000001,46.4069292,3,Martin Schmidhalter,12.04 km
479094152,Tossenhorn,3225,8.0480354,46.1253496,0,,
2808023999,Pizzo di Cavergno,3223,8.4655505,46.4156361,0,,
293234029,Schneeglocke,3223,10.0854312,46.8643969,0,,
290497850,Bec des Rosses,3222,7.2987435,46.072001900000004,0,,
26864313,Piz Vadret,3221,9.962770800000001,46.686946400000004,0,,
3009187471,Ufem Stock,3221,7.771943500000001,46.500643800000006,0,,
1217494417,Rorspitzli,3220,8.5227488,46.6905267,0,,
470535207,Pizzi Gemelli,3220,9.610270100000001,46.2945573,0,,
26864949,Tour Salière,3220,6.9247265,46.1269501,0,,
1372800345,Cavistrau Pign,3219,8.9817607,46.784769600000004,0,,
2379541603,Vogelberg,3218,9.065202000000001,46.478285,0,,
1372361385,Sidelenhorn,3217,8.4076331,46.5995221,0,,
6346116240,Piz Vadret Pitschen,3217,9.962720000000001,46.685190000000006,0,,
1191110525,Chammliberg,3215,8.844997300000001,46.8367762,0,,
470535185,Anticima Meridionale,3214,9.600603300000001,46.2917235,0,,
3075889261,Horn,3214,7.8130033,46.073383500000006,0,,
1244935381,Gwächtenhorn (Gelmer),3214,8.346895100000001,46.6569979,0,,
470618173,Monte del Forno Sud - Est,3214,9.724513400000001,46.3384627,0,,
459849781,Le Métailler,3213,7.360347900000001,46.1039922,0,,
470886661,Mont de la Gouille,3212,7.2597917,45.9073639,0,,
373439671,Pointe de Boveire,3212,7.239679300000001,45.9947521,0,,
658836538,Stockhorn,3211,7.878567500000001,46.3822446,0,,
2440686271,Piz Timun - Pizzo di Emet,3211,9.409484800000001,46.4669399,0,,
286930131,Gross Bielenhorn,3210,8.4283826,46.603957400000006,0,,
26864373,Monte Cervandone,3210,8.2230529,46.324168,0,,
437928286,Le Doigt,3210,6.926090500000001,46.162720500000006,1,Grimpereau Desbois,20.24 km
26864299,Piz Medel,3210,8.9112231,46.6182667,0,,
1874581721,Signalhorn,3210,10.096916700000001,46.848789200000006,0,,
357478201,Sommet des Diablerets,3209.7,7.190104000000001,46.304533000000006,0,,
479094154,Dri Horlini,3209,8.009365500000001,46.113077100000005,0,,
458861318,Sex Quinaudoz,3209,7.4031843,46.0191115,0,,
3980816780,Beichspitza,3208,7.9150122,46.4316188,0,,
3009097621,Elwartätsch,3208,7.780656,46.4471348,0,,
323252767,Munt Pers,3207,9.953485,46.421428600000006,1,Marc Fragnière,9.82 km
3039988405,Jegihorn,3206,7.970258800000001,46.1514642,0,,
410188572,Piz d'Agnel,3205,9.7021543,46.511430700000005,0,,
3077281519,Seewjinenhorn / Corno di Seewjinen,3205,7.9590611,45.9964852,0,,
2472027656,Hinterer Tierberg,3205,8.2131501,46.5472612,0,,
2402858320,Ago di Sciora,3205,9.625994700000001,46.3016504,0,,
3009071331,Sackhorn,3204,7.766027500000001,46.4398603,0,,
2428041762,Latelhorn/Punta di Saas,3204,8.034780600000001,46.044471200000004,0,,
1372787251,Piz Sesvenna,3204,10.4033022,46.705503900000004,0,,
1372361710,Winterstock,3203,8.454211800000001,46.6203164,0,,
2478052850,Piz Arblatsch,3203,9.576945700000001,46.5354675,0,,
658836540,Baltschiederhörner,3202,7.9105243,46.4019733,0,,
1874581720,Schattenspitze,3202,10.087498100000001,46.867628100000005,0,,
3006502444,Puntone dei Fracion,3202,9.0851079,46.470949700000006,0,,
427753027,Schwarzhorn,3201,7.7567482,46.216660700000006,0,,
470618163,Pizzo del Ferro Orientale,3200,9.6364678,46.286225300000005,0,,
1373176873,Strahlhorn,3200,7.908661800000001,46.386060300000004,0,,
375966349,Piz Blaisun,3200,9.8628832,46.6031885,0,,
2379541593,Rheinquellhorn,3200,9.073531000000001,46.480235,0,,
3783110244,Piz Vadret,3199,9.950902800000001,46.5088306,0,,
26863042,Gross Spannort,3198,8.5244444,46.786666700000005,3,Marcel Schmid,54.01 km
2533998523,Latelhorn Italienergipfel,3197,8.0353504,46.044023900000006,0,,
293486959,Dreiländerspitze,3197,10.144972600000001,46.8510186,0,,
2538730510,Piz Surgonda,3196,9.7249671,46.5101798,0,,
470535183,Punta Sertori,3195,9.592717700000001,46.2936186,0,,
3390949898,Piz Cotschen,3195,9.8796338,46.6149086,0,,
5152599110,Festihorn Mitte,3195,7.759936400000001,46.1757928,0,,
1372800498,Crap Grond,3195,8.967968200000001,46.7860549,0,,
1725081218,Pointe des Vignettes,3194,7.476524,45.9904397,0,,
1244930759,Punta del Rebbio,3193,8.1256503,46.294567900000004,0,,
1373119646,Vorder Latelhorn/Pizzo di Camposecco,3193,8.0316924,46.048400400000006,0,,
3008955015,Bütlasse,3193,7.8198356,46.5184641,1,Bernhard Senn,18.18 km
1456536455,Hübschhorn,3192,8.0551353,46.236722,0,,
5813114411,Grüebhorn,3192,7.9091531,46.3915676,0,,
26864325,Pizzo Rotondo,3192,8.466182700000001,46.5176959,0,,
1244929527,Wellhorn,3191.4,8.142049,46.6556604,0,,
1874581616,Knoten,3190,10.0873907,46.861464700000006,0,,
26864563,Scopi,3190,8.83,46.5716667,0,,
3072467879,Lammenhorn,3190,7.8945179,46.154439800000006,0,,
1373117281,Spechhorn/Pizzo di Antigine,3189,8.001105,46.0121966,0,,
808269411,Gärsten-Hörner,3189,8.3613756,46.5981083,0,,
2402841038,Piz Casnil,3189,9.683937100000001,46.336041800000004,0,,
4937172561,Piz Fedoz,3189,9.7406767,46.3596409,0,,
2402847491,Cima dal Largh,3188,9.682507000000001,46.347048900000004,0,,
517705231,Cima Dugorale,3188,10.1638943,46.390489900000006,0,,
412526083,Piz Surlej,3188,9.8431143,46.453213500000004,1,werner messerschmidt,15.94 km
4095457700,Petite Pointe d'Orny,3187,7.0372142,46.006166,0,,
286930122,Gross Windgällen,3187,8.732159000000001,46.807304,0,,
437928310,Dent Jaune,3186,6.9290333,46.1657439,0,,
1975267191,Nollenhorn,3185,7.9882271,46.0508722,0,,
2534664987,Schwarzmies,3185,7.983730700000001,46.125340200000004,0,,
6558652848,Tällistock,3184,8.385824600000001,46.6226673,0,,
2210501434,Petite Dent de Veisivi,3184,7.518288200000001,46.0580616,0,,
1244930609,Hohsandhorn / Punta del Sabbione,3182,8.3090122,46.4035876,0,,
1887921420,Kleines Bigerhorn,3182,7.8569845,46.1459441,0,,
517706684,Monte Val Nera,3182,10.1320405,46.4334958,0,,
1244933472,Hillehorn,3181,8.1404402,46.303071,0,,
26864301,Piz Murtaröl,3180,10.2874958,46.5702756,0,,
1244930695,Ferdenrothorn,3180,7.7072579,46.408331600000004,0,,
1527904681,Piz Tasna,3179,10.255892600000001,46.858235,0,,
452068333,Piz della Palù - Pizzo della Palù,3179,9.422331400000001,46.4747925,0,,
616718876,Hiendertelltihorn,3179,8.2369842,46.6002044,0,,
2091653672,Schneehorn,3178,7.5552786,46.388968000000006,0,,
437928288,Cime de l'Est,3178,6.9480528,46.1729003,0,,
3075889254,Breithorn,3178,7.8300143,46.1435551,0,,
658836541,Grisighorn,3177,7.9395236,46.3874055,0,,
470618190,Monte del Forno Nord - Ovest,3177,9.722942300000001,46.340641600000005,0,,
4181123813,Vordere Jamspitze,3176,10.154153200000001,46.8518471,0,,
3443020311,Ober Rappehorn,3176,8.2696167,46.4105472,0,,
5520831821,Piz Sarsura,3175,9.994480000000001,46.69117,1,Martin Kläger,6.83 km
6396224276,Piz da las Sterlas,3175,9.952492900000001,46.5113302,0,,
8522104996,Hoch Horenfellistock,3175,8.4720998,46.670918500000006,0,,
1372728588,Monte di Zocca,3174,9.650014800000001,46.289903300000006,0,,
26864304,Piz Pisoc,3173,10.2794363,46.7444391,0,,
1458176569,Cima di Camadra,3172,8.906099900000001,46.609915900000004,0,,
684131814,Tinzenhorn,3172,9.6708008,46.6116133,0,,
3977833820,Mont Allobrogia,3171,7.0644233,45.9094391,0,,
1372763108,Piz Pischa,3171,9.865498500000001,46.6143121,0,,
26864296,Piz Lagrev,3170,9.722777800000001,46.445833300000004,0,,
8452020353,La Forbice,3170,9.4134315,46.4673438,0,,
2402856274,Sciora Dafora,3169,9.6277898,46.3042425,0,,
412731778,Piz Güz,3169,9.773721,46.356604100000006,0,,
660749646,Gross Furkahorn,3169,8.4101958,46.5965885,0,,
307271043,Punta Sant'Anna,3169,9.583148900000001,46.294338200000006,0,,
26864311,Piz Tavrü,3168,10.296104600000001,46.6791611,0,,
1458176586,Piz Vial,3168,8.969092700000001,46.6319334,0,,
5152599330,Wyssegga,3168,7.748403000000001,46.198979,0,,
459849555,Monts Rouges,3167,7.4323724,46.0243118,0,,
1865960663,Piz Albris,3166,9.963557600000001,46.463939700000005,1,werner kellenberger,4.34 km
6026373749,Piz Plavna Dadaint,3166,10.223757500000001,46.7082981,0,,
2459437547,Rotfluh,3166,10.080718500000001,46.8605662,0,,
950673901,Piz Quattervals,3165,10.0948376,46.627256200000005,0,,
416037596,Rote Tätsch,3165,7.7989218,46.458940000000005,0,,
1426065670,Tavé des Chasseurs,3165,7.315187300000001,45.990428300000005,0,,
2538708941,Tälihorn,3164,9.56137,46.47847,0,,
459849863,La Forteresse,3164,6.938754500000001,46.170943900000005,0,,
5152599321,Steitalhorn,3164,7.760324000000001,46.2037843,0,,
2402852721,Scälin,3164,9.686793100000001,46.3169769,0,,
1372736601,Mazzaspitz,3164,9.5739804,46.4651268,0,,
1975494658,Sattelspitz,3162,7.803848100000001,46.0463535,0,,
1372223364,Steinlauihorn,3162,8.2546365,46.6178418,0,,
1372768628,Piz Val Müra,3162,9.900929300000001,46.6278486,0,,
5152599334,Furggwanghorn,3162,7.7353433,46.1939587,0,,
616718877,Gross Diamantstock,3162,8.24337,46.592333700000005,0,,
3006482669,Cima Rossa,3161,9.0866323,46.443674900000005,0,,
1372812399,Nördliche Chalausspitze,3161,10.1936587,46.8664423,0,,
1603657652,Muntpitschen - Monpiccio,3161,10.416068000000001,46.7089985,0,,
8522104995,Schinstock,3161,8.4753291,46.6693209,0,,
7154544136,Piz Saluver,3161,9.795544000000001,46.530550100000006,0,,
8452087618,Guglia Centrale,3160,9.414187700000001,46.468028200000006,0,,
437928303,Cathédrale,3160,6.936214100000001,46.1696818,0,,
1646019270,Piz Mitgel,3159,9.6465884,46.614283900000004,0,,
412731775,Piz da la Margna,3159,9.7300245,46.3819626,0,,
6361393443,Piz Gügliet,3159,9.760570000000001,46.49468,0,,
3430028202,Couronne de Bréona,3159,7.570647200000001,46.0917047,0,,
944083164,Punta Mottiscia,3158,8.1408932,46.302141500000005,0,,
1426065668,Grand Tavé,3158,7.314854,45.9944489,0,,
26863112,Hausstock,3158,9.0655497,46.874446000000006,0,,
3443020312,Rappehorn,3158,8.267488,46.415020000000005,0,,
2715135777,Piz Muragl,3157,9.9373527,46.4978278,0,,
457015984,Pizzi dei Piani,3157,9.272213500000001,46.455093500000004,0,,
470880201,Monte dell'Oro,3156,9.762251200000001,46.3393195,0,,
1372736660,Jupperhorn,3155,9.567614,46.4671937,0,,
1372736347,Piz Chalchagn,3154,9.905800000000001,46.4513979,0,,
1372809581,Hinter Jamspitz,3153,10.1561228,46.8478804,0,,
3780110143,Piz Prüna,3153,9.9876391,46.4871331,0,,
1458176610,Zapporthorn,3152,9.1131984,46.479610300000004,0,,
2538730511,Piz Traunter Ovas,3152,9.72985,46.515330000000006,0,,
8503124328,Il Dente,3151,9.280503600000001,46.493406,0,,
1373135194,Äusser Rothorn,3151,7.962436500000001,46.176564000000006,0,,
1458176585,Piz Uffiern,3151,8.8935606,46.6099066,0,,
290497890,Aiguille d'Orny,3150,7.053567800000001,46.0031885,0,,
409823519,Piz Terri,3149,9.033926300000001,46.6000189,0,,
8452025760,Pizzi dei Piani SW,3149,9.2708277,46.4543449,0,,
26864561,Schwarzhorn,3147,9.9417535,46.735795200000005,1,Rolf Erhardt,44.08 km
1874581722,Silvretta Egghorn,3147,10.0919798,46.8514326,0,,
2091965314,Kleines Schneehorn,3146,7.546412800000001,46.394029800000006,0,,
808142939,Steghorn,3146,7.5832737,46.417641200000006,0,,
862855942,Piz Trovat,3146,9.9704286,46.4057017,1,Michi Müller,212.83 km
3523806544,Piz Mundin,3146,10.430681,46.925365000000006,0,,
2844809094,Piz Suvretta,3144,9.758700000000001,46.514590000000005,0,,
1373174162,Alpjuhorn,3144,7.907979500000001,46.3672619,0,,
3393791162,Frilihorn,3144,7.6588658,46.1792583,12,Bendicht Erb,33.69 km
413448231,Mittaghorn,3143,7.937757,46.0845136,0,,
913644941,Becs de Bosson,3143,7.518985000000001,46.168215800000006,45,Yves Kübler,105.17 km
452491922,Monte Cornaccia,3142,10.3081133,46.5494119,0,,
3443020313,Mittaghorn,3141,8.2641303,46.414871500000004,0,,
1217506455,Chli Spannort,3140,8.518276,46.780702500000004,0,,
1244935290,Dossen,3138,8.163126,46.648686000000005,0,,
3780110148,Piz Pischa,3138,9.9836801,46.477366700000005,0,,
459849843,Dôme de la Tour Sallière,3138,6.922578000000001,46.1314202,0,,
286930150,Gross Ruchen,3138,8.774683000000001,46.810142000000006,0,,
5152598449,Schwarzhorn,3137,7.754277,46.1353373,0,,
5152599332,Wyssegga West,3137,7.73995,46.197737000000004,0,,
1373134290,Gabelhorn,3136,7.8585007,46.171204100000004,0,,
2214675181,Piz Jeramias,3136,10.140638000000001,46.847924000000006,0,,
1458176589,Piz de Stabi,3136,9.0900011,46.476649800000004,0,,
2379541590,Pizzo Cramorino,3134,9.060586,46.476372000000005,0,,
830989393,Piz San Gian,3134,9.8481875,46.4577046,0,,
307303167,Foratrida,3134,10.408898200000001,46.7051442,0,,
373439666,Grand Aget,3133,7.236150500000001,46.004260300000006,0,,
286930136,Schlossberg,3133,8.526944,46.8025,1,Thomas Kern,5.92 km
7450039643,Piz Sarsura Pitschen,3132,9.9976008,46.7042784,0,,
3019948777,Pointe d'Arpitetta,3132,7.666378600000001,46.110803700000005,0,,
1710022922,Rifugi dals Chamuotschs,3131,9.9463767,46.396506900000006,0,,
410443809,Piz Duan,3131,9.583321900000001,46.3758792,0,,
2251996083,Piz Grialetsch,3130,9.9548836,46.6937421,0,,
1458176599,Pizzo di Cassimoi,3129,9.0184276,46.5287937,2,Thomas Conzett,24.59 km
412731774,Munt Arlas,3129,9.842834400000001,46.4433043,0,,
2379541583,Piz Jut,3129,9.02253,46.515553000000004,0,,
5139093689,Corno Castello / Kastelhorn,3128,8.4573903,46.4225748,0,,
1458176579,Piz Cristallina,3128,8.8821492,46.6096495,0,,
7808917648,Cima di Aquila,3127,9.0154546,46.533126100000004,2,Thomas Conzett,24.59 km
6517100605,Piz d’Esan,3127,10.060504700000001,46.624310400000006,0,,
2433999069,Schwarzhorn,3126,7.8140866,46.3836261,0,,
3369930814,Punta d'Avedo,3126,10.2195944,46.384393100000004,0,,
3855230678,Piz Greina,3124,8.9736623,46.6298333,0,,
1373138844,Simelihorn,3124,7.942238400000001,46.1992713,0,,
452491921,Piz Schumbraida,3124,10.338229,46.542714000000004,0,,
357516321,Oldenhorn,3123,7.2217297,46.329419400000006,1,Luc Loewensberg,36.69 km
830989394,Piz Rosatsch,3123,9.854061100000001,46.460208300000005,0,,
1372409868,Bündner Tödi,3123,8.9473132,46.802259400000004,0,,
409823590,Fanellhorn,3123,9.130577800000001,46.5478322,0,,
2379541584,Piz Scharboda,3122,9.050199000000001,46.58035,0,,
1823056957,Steinhüshorn,3122,8.3322237,46.6673476,0,,
5775645988,Schilthorn,3122,7.9111862,46.358361300000006,0,,
3855243709,Piz Gaglianera,3121,8.9574827,46.6302749,0,,
3006482670,Piz Piotta,3121,9.0923099,46.448864500000006,0,,
1372814518,Großes Seehorn,3121,10.0322055,46.8880172,0,,
452087721,Punta dell'Acqua,3121,10.139035400000001,46.6109323,0,,
2378947613,Piz Aul,3121,9.125095,46.622780000000006,0,,
1372728979,Punta Allievi,3121,9.669391000000001,46.296448700000006,0,,
7100226265,Piz Marsch,3120,9.792809400000001,46.534244300000005,0,,
1874581611,Klostertaler Egghorn,3120,10.0793988,46.8740219,0,,
1244931298,Pizzo Pesciora,3120,8.4773817,46.524556700000005,0,,
2255198278,Piz Zuort,3119,10.262888400000001,46.735485700000005,0,,
1458176580,Piz Miez,3119,8.8319509,46.5764567,0,,
1372811259,Chalausköpfe,3117,10.1834951,46.8590061,0,,
1372754715,Piz Alvra,3117,9.831071600000001,46.596753,1,Rolf Erhardt,73.19 km
1373181059,Klein Blinnenhorn,3116,8.3053943,46.4286948,0,,
1372728942,Pizzo Badilet,3116,9.5817944,46.2952171,0,,
2498781125,Schattenkopf,3114,10.0816452,46.871469000000005,0,,
1373139449,P3114,3114,7.7542135,46.2043425,0,,
534186078,Corno Dosdè,3114,10.167395200000001,46.407899900000004,0,,
437928307,l'Éperon,3114,6.9321771,46.1677777,0,,
6028739655,Piz Minger,3113,10.267624600000001,46.7289748,0,,
2472027657,Vord. Tierberg,3111,8.228692,46.549979500000006,0,,
2837203161,Piz Salteras,3111,9.708369000000001,46.5815111,0,,
294475218,Großlitzner,3109,10.038291500000001,46.886464700000005,0,,
2534664986,Rothorn,3108,8.0305332,46.1701734,0,,
1244929876,Schwarzhorn,3108,8.2240187,46.3345045,0,,
444582471,Krönten,3108,8.5692763,46.782196600000006,1,Christoph Fässler,8.03 km
2470363659,Brandlammhorn,3108,8.257559500000001,46.581605800000006,0,,
2780198070,Ruchi,3107,9.0451995,46.8649781,2,Markus Egli,44.93 km
5895070467,Gamsspitze,3107,10.173240600000002,46.8540173,0,,
2379541592,Punta delle Stambecco,3107,9.022064,46.512968,0,,
410443807,Gletscherhorn,3107,9.5606638,46.387418200000006,0,,
457354777,Monte Galleggione,3106,9.4877365,46.3668379,0,,
3761989157,Vordere Helse,3106,8.182111200000001,46.3150338,0,,
7154544133,Piz Glüna,3106,9.788471000000001,46.526644000000005,0,,
335589712,Piz Lischana,3105,10.345249,46.769511800000004,0,,
1373118023,Pizzo Cingino Sud,3104,8.0170233,46.025186700000006,0,,
3547016528,Mättenberg,3104,8.079129700000001,46.608643900000004,0,,
470880301,Monte Muretto,3104,9.7458673,46.349696300000005,0,,
452466866,Piz la Stretta,3103,10.0445588,46.4767917,0,,
241018679,Unterrothorn,3103,7.7975858,46.0214848,237,Philipp Steinger,305.95 km
5922320987,Piz Plazèr,3103,10.388184800000001,46.708323400000005,0,,
1757225773,Pizzo Ferrè,3103,9.2800249,46.461618300000005,0,,
1930430815,Pizzo Cassinello,3103,9.0229409,46.537913200000006,0,,
1975494280,Wissgrat,3103,7.838824000000001,46.0587564,0,,
471229823,Pizzo di Canciano,3103,9.9996282,46.283275100000004,0,,
26864308,Piz Segnas,3102,9.239692400000001,46.907904800000004,5,Alex Meier,20.38 km
1372800522,Piz Tumpiv,3100,8.987168,46.786472,0,,
2407686975,Piz Albana,3100,9.773647500000001,46.481093,0,,
6354819928,Le Mammouth,3100,7.6535545,46.063720700000005,0,,
808269630,Gross Muttenhorn,3099,8.4270554,46.5466356,0,,
1552046973,Piz Grisch,3098,9.785330100000001,46.517926800000005,0,,
3075889255,Chli Haupt,3098,7.8197691,46.098431600000005,0,,
393169860,Stockje,3097,7.610440100000001,45.994397500000005,0,,
6028795035,Piz Madlain,3097,10.339144800000001,46.739666500000006,0,,
4243545869,Piz Rots,3097,10.3160518,46.925176500000006,0,,
1372811862,Südliche Chalausspitze,3096,10.188593500000001,46.8614127,0,,
7835741951,Wängerhorn,3096,7.673167,46.161374800000004,4,Pablito Cretton,44.76 km
26864549,Piz Giuv,3096,8.6925,46.7019444,0,,
5152599120,P3095,3095,7.7651976,46.2017163,0,,
1372216613,Löffelhorn,3095,8.237103600000001,46.526875100000005,0,,
452084931,Monte Serra,3093,10.1067613,46.610612700000004,0,,
2677870297,Piz San Jon Dadaint,3092,10.340845400000001,46.7536744,0,,
1603655612,Piz Cristanas,3092,10.392752100000001,46.7344353,0,,
2433523123,Piz Foraz,3092,10.2767008,46.690556,0,,
7154544127,Piz da la Funtauna,3092,9.8119095,46.5375303,0,,
5152599109,Festihorn Ost,3092,7.7659124,46.177063200000006,0,,
452042862,Pizzo Zoccone,3091,9.2794079,46.489529000000005,0,,
2712924372,Piz Mandra,3091,9.9002584,46.437532600000004,0,,
452466915,Monte Cotschen,3090,10.042823400000001,46.510123300000004,0,,
412731777,Piz Led,3090,9.7725871,46.361205500000004,0,,
1244933412,Vorder Tierberg,3090,8.397423400000001,46.698387600000004,0,,
3439344670,Muttenstock,3089,9.0458599,46.8499946,0,,
452491923,Piz Magliavachas,3088,10.2918713,46.562350800000004,0,,
470618172,Monte Rosso,3088,9.7179102,46.3230249,0,,
410189759,Scalettahorn,3087,9.9423188,46.6934303,0,,
1373170303,Punta Gerla,3087,8.225253,46.332777400000005,0,,
558976288,Firehorn,3086,8.210828600000001,46.50439,0,,
26862877,Flüela Wisshorn,3085,9.966658800000001,46.762226600000005,0,,
7450310852,Chli Oberälpler,3084,8.7780976,46.7509619,0,,
3959533044,Pizzo Cornera,3083,8.2150122,46.3162632,0,,
290497871,Mont Rogneux 3084,3083,7.2308303,46.0095709,5,Bryan Moore,43.65 km
3453811788,Piz Predarossa,3083,9.5636787,46.3901407,0,,
7105411283,Hinter Schiben,3083,8.9719181,46.818752200000006,0,,
808269328,Witenwasserenstock,3082,8.473696,46.5287066,0,,
410443664,Cima da Lägh,3082,9.461076100000001,46.3763695,0,,
5136143049,Cima delle Piodelle,3081,8.1800475,46.2978254,0,,
1372728549,Torrione di Zocca,3080,9.6447043,46.2883179,0,,
2379541579,Lògia,3080,9.045300000000001,46.481312,0,,
3393774498,Pointe de Tourtemagne,3080,7.6618339,46.2043686,0,,
1217509082,Zwächten,3080,8.5366327,46.7763433,0,,
283326631,Curuna Lada,3079,10.2413126,46.8708819,0,,
2472025363,Escherhorn,3078,8.1968881,46.5575926,0,,
2538678787,Piz Surpare,3078,9.595394200000001,46.4651828,0,,
519825564,Chüealphorn,3078,9.9053628,46.685368600000004,0,,
1372751956,Piz Val Lunga,3078,9.706058800000001,46.586454100000005,0,,
5152599082,Pipjispitz,3078,7.7287692,46.168441200000004,0,,
7711404995,Boggtschingel,3078,8.8957998,46.8495597,0,,
6345961882,Piz Porchabella,3078,9.896230000000001,46.63599,0,,
637084824,Pointe du Tsaté,3078,7.5491381,46.1092309,2,Grimpereau Desbois,8.15 km
459849845,L'Église de la Tour Sallière,3077,6.922124200000001,46.136383,0,,
1244931534,Golegghorn,3077,8.2499844,46.6154783,0,,
4077344092,Crispalt,3076,8.6890502,46.6889556,0,,
1372961759,Gerenhorn,3076,8.4728201,46.523239200000006,0,,
7105411280,Chli Tödi,3076,8.8995212,46.8138835,0,,
1372731642,Piz Sena,3075,10.1099274,46.353143200000005,0,,
26864310,Piz Starlex,3075,10.392551600000001,46.6627506,0,,
1373126315,Pointe du Bandon,3074,7.5572593,46.1045243,0,,
3077280639,Grünberghorn,3074,7.9447248,46.0098489,0,,
26862633,Bristen,3073,8.6813258,46.7369009,0,,
2844809091,Corn Suvretta,3072,9.749310000000001,46.5047,0,,
1455439871,Pizzo Campo Tencia,3071,8.7259709,46.4296961,0,,
1244935078,Chüebodenhorn,3070,8.453105,46.508151600000005,0,,
460379074,Klein Allalin,3070,7.937390000000001,46.059597000000004,3,Michael Imhof,8.92 km
3393785086,Le Boudry,3070,7.6596345,46.191811,0,,
1372222627,Hinter Gärstenhorn,3070,8.3618932,46.6017862,0,,
459849785,Les Louèrettes,3068,7.3555891,46.115299300000004,0,,
336131628,Piz Minschun,3068,10.2413945,46.8313641,0,,
808269552,Gross Leckihorn,3068,8.464266400000001,46.535883500000004,0,,
902506856,Sass Queder,3066,9.9726213,46.4107764,78,Philipp Steinger,318.81 km
459849473,Geltenhorn,3065,7.3346144,46.346328400000004,0,,
7295349818,Piz Radönt,3064,9.958047,46.722481800000004,0,,
6260658231,Piz San Jon d'Immez,3064,10.3313305,46.758082200000004,0,,
1185814440,Piz Cazarauls,3063,8.8770244,46.8129233,0,,
3006482668,Cima dei Cogn,3063,9.0888854,46.432177800000005,0,,
658836543,Gletscherspitza,3063,7.888623000000001,46.423405100000004,0,,
519784353,Piz Ducan,3063,9.851572800000001,46.689553100000005,0,,
1372766654,Piz Viroula,3062,9.909240800000001,46.6224232,0,,
8736685488,Piz Starlex,3062,10.392560000000001,46.6605191,0,,
1372360329,Stotzigi Muttenhorn,3062,8.4437616,46.537606000000004,0,,
3955232094,Piz Bial,3061,9.756060900000001,46.5590077,0,,
1552046231,Piz Corviglia,3060,9.788238600000001,46.5213216,0,,
1372363265,Giuvstöckli,3060,8.686281900000001,46.6941788,0,,
702795367,Testa Grisa,3060,7.228249600000001,45.8919395,0,,
6164420753,Piz Grisch,3060,9.4728271,46.531522100000004,0,,
4341298940,P. Gallina,3060,8.3922936,46.4947323,0,,
307224472,Ofentalhorn,3059,8.0123972,46.0119878,0,,
4095457697,Aiguille d'Arpette,3059,7.0621251,46.005481200000006,0,,
7275090336,Dents d'Oyace,3058,7.382547000000001,45.896497200000006,0,,
452086504,Pizzo Fier,3058,10.0977656,46.5976531,0,,
1372363341,Piz Nair,3058,8.7089842,46.6989621,0,,
3453811787,Piz Mungiroi,3057,9.5674901,46.393529,0,,
1500747211,Bruschghorn,3056,9.3065464,46.632494200000004,0,,
309542784,Piz Nair,3056,9.787370600000001,46.5063091,13,Philipp Steinger,222.36 km
3125938319,Piz Sardona,3056,9.2514866,46.922950300000004,0,,
1360637438,Majinghorn,3054,7.688799700000001,46.3912824,0,,
2379541567,Cima di Fornee,3054,9.020923,46.522998,0,,
459849472,Mont Pucel,3054,7.3614392,46.3475964,0,,
420260675,Mont Ruan,3053.5,6.900520500000001,46.123924200000005,0,,
410443841,Piz Piot,3053,9.586895100000001,46.4028512,0,,
961315212,Piz Forun,3052,9.8649438,46.655307400000005,0,,
427753024,Dreizehntenhorn,3052,7.762215200000001,46.2222706,0,,
609521278,Usser Wissberg,3052,9.5198778,46.493943800000004,0,,
26863015,Grand Muveran,3051,7.126165200000001,46.237171100000005,0,,
7274708476,Monte di Menouve,3051,7.2157055,45.8838208,0,,
2379541586,Piz Val Nova,3051,9.054348000000001,46.577277,0,,
452466899,Pizzo del Leverone,3051,10.051186600000001,46.5275144,0,,
457160776,Pizzo Rosso,3050,9.4631977,46.380226400000005,0,,
676759451,Piz Rims,3050,10.399131200000001,46.7333483,0,,
26864300,Piz Minor,3049,10.028322000000001,46.451110500000006,0,,
1372732731,Piz dal Teo,3049,10.1260071,46.3697564,0,,
26865116,Vordere Loner,3049,7.6,46.4619444,0,,
290497868,Beaufort,3048,7.2484362,45.9458381,0,,
5304668025,Lorenzhorn,3048,9.127930000000001,46.52676,0,,
283326630,Piz Faschalba,3048,10.2326368,46.8663175,0,,
6260658230,Piz San Jon Dadora,3047,10.328353700000001,46.760783800000006,0,,
1347923203,Bättelmatthorn,3046,8.350702700000001,46.4414917,0,,
2402827678,Cima da Splüga,3046,9.687504500000001,46.350448500000006,0,,
1372785544,Piz Laschadurella,3045,10.196053200000001,46.6979849,0,,
1373182244,Punta dei Camosci / Bättelmatthorn,3044,8.3509768,46.441499,0,,
519825402,Bocktenhorn,3044,9.902702000000001,46.7070851,0,,
6260658228,Piz Cotschen,3044,10.3539349,46.745367900000005,0,,
2336868148,Piz Murtera,3044,10.0403623,46.7753693,0,,
457161202,Cima della Blese,3044,9.4668272,46.398160600000004,0,,
458861309,Pointe des Autans,3044,7.3738657,46.0873426,1,Henri Montel,13.72 km
2379541602,Vernokhörner,3043,9.02684,46.562504000000004,0,,
7154544135,Piz Zavretta,3043,9.817507200000001,46.597002,0,,
2379541570,Furggeltihorn,3043,9.064342,46.534262000000005,0,,
1244930329,Gross Wendenstock,3042,8.380330500000001,46.761588200000006,0,,
6345968797,Piz Viluoch,3041,9.91367,46.64235,0,,
2379541591,Plattenberg,3041,9.023259000000001,46.55828,0,,
3658573840,Punta,3040,9.6813581,46.3317727,0,,
2472027770,Hinder Zinggestock,3040,8.240632,46.552753,0,,
4993486656,La Maya (d'Arolla),3040,7.503308,46.0159195,0,,
7595661492,Piz Triazza,3040,10.358456,46.769655400000005,0,,
2402852722,Caciadur,3040,9.686149400000001,46.322386,0,,
667000694,Alperschällihorn,3039,9.307885,46.588209500000005,0,,
409823591,Kirchalphorn,3039,9.1542358,46.5332693,0,,
1372957843,Pizzo Penca,3038,8.738162,46.427312,0,,
2379541588,Pizzo Baratin,3037,9.053573,46.477011000000005,0,,
458393117,Tête Ronde,3037,7.177580600000001,46.3037951,0,,
457016009,Pizzo Bianco,3037,9.2578869,46.4498873,0,,
1373135166,Seetalhorn,3037,7.862853500000001,46.1763873,13,Claudio Ruff,24.07 km
307218738,Joderhorn,3036,7.989027,45.9960011,0,,
2402827679,Piz Casaccia,3036,9.6889845,46.3524204,0,,
459849474,Arpelistock,3035.5,7.3152413,46.343877400000004,11,Martin Zettler,19.51 km
667000696,Gelbhorn - Piz Mellen,3035,9.306111000000001,46.621389,0,,
418596980,Mutthorn,3035,7.8216298,46.4890782,0,,
7721084821,Chli Ruchi,3034,9.0514731,46.867489600000006,0,,
4365018191,Triftstöckli,3034,8.3624613,46.6623279,0,,
1372739149,Corn Margun,3034,9.738504,46.5052633,0,,
457160722,Pizzo d'Inferno,3034,9.466556800000001,46.3950906,0,,
833291744,Bürkelkopf,3033,10.3476241,46.9894685,0,,
452507209,Piz Umbrail,3033,10.415824500000001,46.550908,0,,
851736320,Schwarzhorn,3032,9.302472,46.617928600000006,0,,
7274800595,Punta di Moline Centrale,3032,7.225852300000001,45.889772900000004,0,,
2849262010,Sassal Mason,3032,10.013621200000001,46.3899762,0,,
470618171,Cima di Val Bona,3032,9.7260077,46.319571800000006,0,,
3393785087,Omen Roso,3031,7.660344800000001,46.1743978,1,laurent monneron,6.48 km
26864307,Piz S-chalambert Dadaint,3031,10.413325,46.800835600000006,0,,
2379541568,Frunthorn,3030,9.088803,46.586095,0,,
1458176565,Breitstock,3030,9.127551200000001,46.485343500000006,0,,
6260658229,Piz d'Immez,3030,10.3787056,46.7439711,0,,
918917610,Üssere Turu,3030,7.9365702,46.0411616,0,,
321521317,Piz Cotschen,3030,10.1766175,46.813310300000005,0,,
1412923094,Bischofspitze,3029,10.2307663,46.869389500000004,0,,
4976759244,Hinter Selbsanft,3028,8.9787687,46.8318183,0,,
901464453,Trinserhorn,3028,9.2667017,46.9033284,0,,
5152599084,Längi Egga West,3028,7.7147519,46.1698752,0,,
5483520402,Piz dal Ras,3028,10.033643300000001,46.738336800000006,0,,
1372740089,Piz Por,3028,9.3842853,46.5094161,0,,
3439347642,Bündner Vorab,3028,9.156718300000001,46.873929600000004,0,,
992454928,Ginalshorn,3027,7.7404682,46.2370267,0,,
1840663287,Piz Valdasass,3027,10.4134507,46.699395100000004,0,,
632726810,Piz Davo Lais,3027,10.2679497,46.8788015,0,,
1131327497,Piz Ault,3027,8.781987800000001,46.728314000000005,0,,
2402851348,Pizzi dei Rossi,3027,9.7179976,46.346708,0,,
410169955,Surettahorn - Pizzo Suretta,3027,9.3623964,46.509534200000004,0,,
519825295,Augstenhüreli,3027,9.903217000000001,46.691721400000006,0,,
2789044421,Saashörner,3026,8.439128400000001,46.5298242,0,,
2478781794,Strahlhorn,3026,8.095207,46.450972,1,Reto Heutschi,74.85 km
470618164,Punta di Cameraccio,3026,9.701656100000001,46.2861909,0,,
466142145,Piz Cotschen,3026,10.4573786,46.5418613,1,Michael Zenker,34.57 km
3430337995,Pointe de la Tsevalire,3026,7.5086246,46.1623954,8,Alexandre Caillet-Bois,21.05 km
601525444,Klein Furkahorn,3026,8.4064391,46.5858817,0,,
2379541597,Schwarzhorn,3025,9.114286,46.519815,0,,
911155369,Bella Tola,3025,7.653608,46.2390636,1,valentin pellissier,42.88 km
7274800594,Punta di Moline Est,3025,7.2267736,45.890996,0,,
1372360123,Chli Leckihorn,3024,8.467238100000001,46.5337387,0,,
457016030,Pizzo Sevino,3024,9.280428200000001,46.379708900000004,0,,
2379541595,Röstihorn,3024,9.118756000000001,46.521054,0,,
286930141,Wendenhorn,3023,8.4435895,46.7539037,0,,
290497851,Mont Gelé,3023,7.279175100000001,46.096919400000004,2,werner messerschmidt,53.55 km
1372792571,Piz d'Arpiglias,3022.7,10.1174917,46.7343284,0,,
2378947612,Faltschonhorn,3022,9.114872,46.612437,0,,
5173573094,Castalegns,3021,9.6837037,46.5536583,0,,
2433518490,Piz Vallatscha,3021,10.313982900000001,46.6687662,0,,
7295349819,Radüner Rothorn,3021,9.9465135,46.7241237,0,,
1372739897,Cime Cadenti,3021,9.360567900000001,46.508160200000006,0,,
863295209,Sparrhorn,3021,7.984086100000001,46.4042733,1,Albert Holler,50.15 km
2336868147,Piz Fless,3020,10.037100800000001,46.787254700000005,0,,
7274800593,Punta di Moline Ovest,3020,7.2230749,45.8903302,0,,
6346112574,Piz Punt Ota,3020,9.966050000000001,46.67689,0,,
519825897,Gletscher Ducan,3020,9.8301382,46.6748546,0,,
4278366543,Piz Blas,3019,8.7280197,46.5770276,0,,
3946097202,Pizzo Canciano sud-est,3019,10.0037182,46.282288300000005,0,,
519826417,Piz Murtelet,3019,9.8681981,46.670440400000004,0,,
3453811791,Tscheischhorn,3019,9.5173761,46.427767700000004,0,,
2440726227,Piz Turba,3018,9.605693500000001,46.4102936,0,,
3393763608,Le Toûno,3018,7.6500472,46.207398000000005,1,Maxime Kaufmann,4.17 km
896378106,Glarner Vorab,3018,9.153003100000001,46.879846400000005,0,,
2379541601,Torrone di Garzora,3017,9.029905000000001,46.571369000000004,0,,
2844809090,Corn Chamuotsch,3017,9.75388,46.499610000000004,0,,
412731801,Piz Polaschin,3017,9.749972900000001,46.4592619,0,,
1372736307,Piz di Ross,3017,9.2623978,46.450089000000006,0,,
452466888,Punta Cassana,3016,10.080635500000001,46.5753543,0,,
1458176584,Piz Rondadura,3016,8.7507696,46.5761788,0,,
8739923095,Lorenziberg,3016,10.3908456,46.668092300000005,0,,
3077281521,Signal,3015,7.946482400000001,46.0173019,0,,
3710994366,Igl Compass,3015,9.8236652,46.5892768,0,,
286930143,Witenalpstock,3015,8.747587000000001,46.735829,0,,
1372740044,Punta Rossa,3015,9.3644201,46.509097000000004,0,,
1458176597,Pizzo del Corvo,3015,8.833293000000001,46.563595400000004,0,,
1244931351,Mittaghorn (Nufenen),3015,8.385454300000001,46.4963441,0,,
6517100603,Paraid Naira,3015,10.2416584,46.9316326,0,,
457160897,Cima della Sovrana,3014,9.468897100000001,46.388727200000005,0,,
5132483721,Aiguille des Sasses,3014,7.1179997,45.8592947,0,,
2091182525,Rothorn,3013,7.568143600000001,46.3816678,0,,
665611685,Pizzo Quadro,3013,9.2843462,46.3862326,0,,
2379541594,Rotgrätli,3012,9.12537,46.534633,0,,
3959520637,Punta Devero,3011,8.2151546,46.320221700000005,0,,
1217510568,Bächenstock,3011,8.5366584,46.7679588,0,,
1372363278,Brichplanggenstock,3010,8.6824706,46.6943819,0,,
1426126737,Larainfernerspitze,3009,10.234067900000001,46.905295900000006,0,,
1372776985,Piz Nair,3009,10.2721395,46.6669348,0,,
1244932932,Pfaffenhuet,3009,8.3742157,46.7587221,0,,
3072469322,Torleten,3008,7.8639627,46.1702249,0,,
599694905,Täschehorn,3008,8.1610457,46.4725746,0,,
5152599077,Hungerlihorli,3007,7.724086000000001,46.1836337,0,,
1458176583,Piz Ravetsch,3007,8.7030694,46.584251300000005,0,,
6517982354,Las Sours,3007,9.9280947,46.501051000000004,0,,
519825195,Älplihorn,3006,9.825498000000001,46.710644800000004,0,,
452466886,Pizzo Cassana,3005,10.085296300000001,46.566940800000005,0,,
2379541577,Höhberghorn,3005,9.102957,46.50959,0,,
7154544129,Piz Schlattain,3004,9.7910245,46.5149221,0,,
452045767,Cima di Val Loga Centrale,3004,9.276183000000001,46.474768700000006,0,,
519825596,Chlein Ducan,3004,9.8407323,46.6816826,0,,
950673949,Piz Costainas - Furkelspitz,3004,10.474946300000001,46.562266400000006,0,,
3073184767,Fleschhorn,3004,8.2166181,46.332975700000006,0,,
1244933958,Reissend Nollen,3003,8.400908600000001,46.7664775,0,,
2091602977,Chli Rinderhorn,3003,7.643203400000001,46.4256893,0,,
4253467029,Rothoren,3003,8.2195532,46.576439,0,,
1372736815,Cima di Val Loga Meridionale,3003,9.2763103,46.472325500000004,0,,
950673950,Piz Pala Gronda,3002,10.2936677,46.578372,0,,
1123362152,Mittlere Loner,3002,7.6094087,46.4695034,0,,
666974856,Pizzas d'Anarosa-Grauhörner,3002,9.3138932,46.5991798,0,,
5777523910,Wiwannihorn,3001,7.856147300000001,46.354788500000005,0,,
7272736196,Mittler Wissberg,3001,9.5290925,46.485559900000005,0,,
7968575692,Galmihorn,3001,8.383592100000001,46.4983889,0,,
4870018196,Piz Mäder,3001,9.6068627,46.4040661,0,,
1373127815,Pointe du Prélet,3000,7.544429,46.1181907,0,,
4095457698,Aiguille de la Cabane,2999,7.0681199,46.006315400000005,0,,
2470511836,Pizzo Centrale,2999,8.6149264,46.578136400000005,0,,
567355329,Rothorn,2998,7.6432473,46.244275,1,Christian Grütter,5.13 km
851657819,Pic d'Artsinol,2998,7.4270041,46.1152111,8,Nicolas Jacquod,14.57 km
975059065,Trubelstock,2998,7.572203300000001,46.370223100000004,2,Laurent Borella,26.86 km
1360637441,Torrenthorn,2997.9,7.678927600000001,46.377461800000006,1,Sebastian Kitagawa,15.08 km
666974858,Piz Beverin,2997,9.3579644,46.652567100000006,5,Dominik Wellenzohn,16.98 km
1372728943,Punta di Trubinasca,2996,9.5784155,46.295583900000004,0,,
458393115,Dôme des Diablerets,2996,7.205559500000001,46.3141383,0,,
2433523122,Piz Nüglia,2995,10.282582000000001,46.6844083,0,,
469964975,Mont Bonvin,2995,7.5077511,46.364641500000005,0,,
1244933695,Fünffingerstöck,2994,8.4366458,46.7526888,0,,
1131384219,Piz da Stiarls,2993,8.9816772,46.634166500000006,0,,
5152599069,Borthorn,2993,7.740868600000001,46.2324221,0,,
830989395,Piz Mezdi,2992,9.8632899,46.4701199,1,Boris Smolinski,8.90 km
3780110067,Piz Prünella,2991,10.011988200000001,46.4892015,0,,
4869786860,Grauhörner,2991,9.5779414,46.4149784,0,,
5369943691,Corn Alv,2991,9.7201538,46.496368600000004,0,,
2538676717,Piz Scalotta,2991,9.594840000000001,46.472750000000005,0,,
7935469745,Bättlihorn (Süd),2991,8.0939259,46.332715400000005,0,,
401234365,Blattje,2990,7.826213800000001,45.950552900000005,0,,
670546158,Pic de Tenneverge,2989,6.8793547,46.0941472,0,,
3228883722,Stellibodenhorn,2989,8.4623682,46.540090500000005,0,,
5152599105,Sparruhorn,2988,7.769211500000001,46.183552000000006,0,,
517705229,Punta del Teo,2988,10.127752000000001,46.3748735,0,,
666974857,Wisshorn,2988,9.2931782,46.584169200000005,0,,
7105411284,Vorder Schiben,2987,8.9763236,46.823233300000005,0,,
3073533036,Holzjihorn,2987,8.2484243,46.403817800000006,0,,
2171562973,Gorihorn,2987,9.9587755,46.795299,0,,
1373179519,Holzjihorn,2987,8.2483647,46.4039088,0,,
519826600,Piz Ravigliel,2987,9.8222615,46.6699515,0,,
7804543556,Chüetriftehoren,2986,8.2308841,46.584667100000004,0,,
328365621,Fatlarspitze,2986,10.286764400000001,47.0520317,0,,
2442452976,Chli Windgällen,2986,8.715826700000001,46.795501900000005,0,,
3780110066,Piz Chatscheders,2986,10.016451400000001,46.4779799,0,,
6346108362,Piz da l'Hom,2985,9.956520000000001,46.669180000000004,0,,
2531749431,Zibelenfluehorn,2985,8.0602394,46.1241374,0,,
401234369,Monte Moro,2985,7.974963000000001,45.999225900000006,33,alessandro bianchi,96.39 km
944083741,Punta di Aurona,2984,8.105510800000001,46.279661600000004,0,,
3006502443,Puntone della Parete,2984,9.0949194,46.460396900000006,0,,
3471994386,Rote Schije,2984,8.2996605,46.438246500000005,0,,
3425203843,Cuolm d'Mez,2983,9.857725100000001,46.4652723,0,,
6555679020,Piz Vatgira,2983,8.770866400000001,46.606056,0,,
4932500876,Piz de las Cavigliadas,2983,10.1524268,46.8305974,0,,
3588306538,Piz Mon,2982,10.1319353,46.8474822,0,,
26864290,Piz de la Lumbreida,2982,9.2252747,46.4811154,0,,
7739030509,Piz Plavna Dadora,2981,10.2504016,46.736578300000005,0,,
286930134,Salbitschijen,2981,8.530108400000001,46.6805424,0,,
853333316,Steilerhorn,2980,9.3149654,46.584418,0,,
2473199963,Piz d´Astras,2980,10.3273273,46.6755331,0,,
1372733562,Wissberg,2980,9.5292505,46.393165,0,,
519826683,Sattelhorn,2980,9.9023648,46.710260500000004,0,,
1372793397,Aroser Rothorn,2980,9.6138986,46.737834500000005,0,,
8305342707,Pischahorn,2980,9.9471807,46.813158900000005,1,Stefan Schwarz,19.95 km
1864042879,Piz Cacciabella Nord,2980,9.6292506,46.324058,0,,
479094156,Schijenhorn,2980,8.069282300000001,46.1284495,0,,
1372789734,Piz Gendusas,2979,8.7774441,46.720355000000005,0,,
6913787610,Bocca di Mottiscia,2979,8.133311800000001,46.298922100000006,0,,
6283574818,La Tsavre,2978,7.1297522,45.915408400000004,0,,
5152599073,Ritzuegg,2976,7.735067000000001,46.200760300000006,0,,
6517040632,Piz Cagniel,2975,9.5392656,46.5077821,0,,
992454926,Schwarzi Blatte,2975,7.7511112,46.2309709,0,,
3323230120,Piz Alv,2975,9.9995501,46.4493304,0,,
2091206972,Leeshörner,2974,7.5961837,46.384193,2,Daniel Schmitt,87.74 km
1217500137,Wichelplanggstock,2974,8.473062800000001,46.765636900000004,0,,
452085694,Cima Dei Buoi,2974,10.0995155,46.603400300000004,0,,
2417754544,Mont Dolin,2974,7.453954100000001,46.0256277,0,,
3752192260,Linard Pitschen,2974,10.0794665,46.794035,0,,
853333323,Teurihorn,2973,9.3188277,46.5766897,0,,
271904229,Schilthorn,2973,7.835209300000001,46.5573271,391,Steve Bramfitt,247.40 km
427753011,Augstbordhorn,2972,7.7951353,46.235134800000004,1,KÜRTU HÄNNI,92.93 km
286930139,Gämsfairenstock,2972,8.917814100000001,46.860466,57,Werner Jacober,76.11 km
2493479732,Piz Curvér,2972,9.4970689,46.603452600000004,1,Rico Meuli,12.23 km
2387761757,Piz Griatschouls,2972,9.9437846,46.628231500000005,2,David Jenny,13.87 km
412731802,Piz Mez,2972,9.7350145,46.4447678,0,,
1373149279,Borterhorn,2971,7.6620045,46.2468592,0,,
262497471,Scex Rouge,2971,7.2026108,46.3271819,16,Martin Zettler,123.95 km
1244933420,Griessernuhorn,2970,8.001348,46.202752100000005,0,,
459849842,Pointes d'Aboillon,2969,6.936644200000001,46.1240414,0,,
1244933216,Corno Gries / Grieshorn,2969,8.3929012,46.4516482,0,,
2093981671,Restirothorn,2969,7.7027495,46.3823913,0,,
5983377247,Pizzun,2969,9.5138662,46.3698855,0,,
7154544126,Ils Chejels,2969,9.80555,46.532746,0,,
440761203,Grande Dent de Morcles,2969,7.0755338,46.199325300000005,1,Grimpereau Desbois,14.94 km
3453811789,Punta 2969,2969,9.5178574,46.4312869,0,,
1372958476,Punta di Valrossa,2968,8.4023039,46.454768400000006,0,,
1372739465,Punta Adami,2968,9.3671951,46.506214,0,,
440407038,Haut de Cry,2968,7.1950481,46.2402582,0,,
4758368172,Piz Cacciabella Sud,2968,9.628745200000001,46.3229672,0,,
26864288,Piz Daint,2968,10.2909392,46.6187514,0,,
4869786857,Mingalunhorn,2967,9.5794327,46.4189282,0,,
4869786858,Juferhorn,2967,9.5761979,46.4205369,0,,
519826159,Piz d'Uglix,2967,9.701692600000001,46.6118156,0,,
7295349822,Chlein Schwarzhorn,2967,9.936549600000001,46.743370000000006,0,,
457098625,Pizzo Pombi,2967,9.2758448,46.367899,0,,
1372737079,Cima di Val Loga Settentrionale,2967,9.2765053,46.4801055,0,,
1458176588,Piz de Mucia,2967,9.1373317,46.4657319,0,,
7100226264,Cho d'Suvretta,2966,9.7879064,46.540770200000004,0,,
1234208897,Piz Nair,2966,10.2551792,46.847138400000006,0,,
566646179,Guglen,2966,7.8932431,46.100404000000005,0,,
26864550,Schesaplana,2965,9.7074066,47.053852600000006,35,Julian Kaufmann,33.44 km
7450310851,Hälsistock,2965,8.704033800000001,46.7021231,0,,
458867296,Le Ferret,2965,7.312642,46.0946049,0,,
2379541580,Paradieshüreli,2964,9.077624,46.488499000000004,0,,
1372747872,La Piramida,2964,9.7696617,46.5620403,0,,
1426126736,Heidelberger Spitze,2963,10.2358252,46.9132077,0,,
5823785433,Pointe de Barasson,2963,7.2008033,45.863059400000004,0,,
2379541572,Gemskanzel,2963,9.059659,46.486732,0,,
3732066443,Piz Mezzaun,2963,9.965221900000001,46.5697343,0,,
539186454,Pizzo Lucendro,2963,8.519666500000001,46.538924900000005,0,,
6240333888,Piz Moesola,2962,9.139418000000001,46.493609400000004,0,,
457160814,Punta del Poli,2962,9.4661456,46.384869,0,,
3218622974,Rienzenstock,2962,8.6357388,46.6830675,0,,
1373125799,Pointe des Rousses,2962,6.886089,46.097961000000005,0,,
1372958303,Marchhorn,2962,8.4625688,46.448513000000005,0,,
5152598874,Rieberg,2961,7.7813673,46.2208285,0,,
2402841041,Piz Bregaglia,2961,9.6876625,46.356921,0,,
457015986,Pizzo Curciusa,2961,9.2407956,46.4473111,0,,
8303506122,Großer Tartscher Kopf - Monte di Tarres,2961,10.478225100000001,46.556968600000005,0,,
309276896,Gemsstock,2961,8.6115218,46.601979400000005,57,Bruno Bohren,245.14 km
1372740997,Piz Muttala,2960,9.394047500000001,46.513337,0,,
3732066442,Il Corn,2959,9.9922156,46.5599104,0,,
1820763442,Piz Lagalb,2959,10.023588400000001,46.4315785,22,Peter Käch,155.21 km
1372730715,Il Cappuccio,2958,9.799779500000001,46.3436833,0,,
1373116883,Pizzo Mondelli/Punta Mondelli,2958,7.9962394,46.0037199,0,,
950673900,Piz Turettas,2958,10.3350799,46.586798900000005,0,,
5139126238,Pizzo della Medola,2957,8.4712108,46.396041800000006,0,,
445797066,Muttenbergen,2956,9.0369302,46.8438214,0,,
4278366545,Piz Denter,2956,8.7229931,46.5738483,0,,
519826399,Piz Platta Roggia,2955,9.804640500000001,46.660038300000004,0,,
7154544128,Piz dal Büz,2955,9.816594,46.5317555,0,,
1551975671,Las Trais Fluors,2955,9.820509900000001,46.5311699,0,,
1603662546,Fernerspitz - Punta della Vedretta,2954,10.4188124,46.7191543,0,,
4695628566,Chlyn Wendestock,2954,8.3858307,46.7626641,0,,
2379541571,Garenstock,2953,9.029397000000001,46.556305,0,,
5813114412,Rothorn,2953,7.8980702,46.3641883,0,,
1458176578,Piz Borel,2952,8.699416600000001,46.582115900000005,0,,
4010044206,Grünhorn,2952,8.934328,46.809247600000006,0,,
26862636,Brunnistock,2952,8.55,46.847777900000004,0,,
1373150739,Brunnethorn,2952,7.666140700000001,46.2544138,0,,
687555362,Monts Telliers,2951,7.145306000000001,45.898321,0,,
1372734029,Bodagrat,2951,9.522622100000001,46.4071562,0,,
566646196,Guglu,2951,7.9007161,46.150749000000005,0,,
462691376,Bättlihorn (Nord),2951,8.0937231,46.3367774,0,,
950673913,Piz Dora,2951,10.306192000000001,46.6050447,0,,
7274800596,Punta di Crête Sèche,2951,7.2164029,45.888820800000005,0,,
459849486,Rohrbachstein,2950,7.4621408,46.376421400000005,0,,
6026426654,Piz Nair,2950,10.2113642,46.7332479,0,,
519826256,Piz Crealetsch,2950,9.8127086,46.6646506,0,,
5369943688,Il Nes,2950,9.749035800000001,46.4972549,0,,
687555361,Pointe de Drône,2949,7.1573492,45.8789971,0,,
1603652062,Schadler,2948,10.409507300000001,46.727356500000006,0,,
3430418567,Wisshore,2948,7.473291400000001,46.3836194,6,Laurent Borella,20.07 km
26864944,Torent Alto,2948,9.0711183,46.343609,0,,
1131335904,Piz Glivers Dado,2947,8.924088600000001,46.775459600000005,0,,
1455439873,Pizzo Cana,2947,8.709574,46.4402951,0,,
7272736198,Inner Wissberg,2947,9.5341965,46.4805688,0,,
1131357140,Piz Cavel,2946,9.020058,46.655801200000006,0,,
1217504105,Grassen,2946,8.4484381,46.763417000000004,3,Christoph Fässler,53.30 km
2377362740,Wissensteinhorn-Piz Tomül,2946,9.228531100000001,46.623437800000005,1,stefan hollenstein,5.08 km
6325913535,Maderhorn cima N-E,2946,8.0730264,46.2610314,0,,
808142683,Les Faverges,2945,7.5270565,46.374692200000005,0,,
3780110065,Piz Sagliaint,2945,10.0002186,46.4749636,0,,
3425203846,Il Corn,2945,9.8601954,46.4685593,0,,
375973695,Munt Baselgia,2945,10.128183700000001,46.717167700000005,1,Kim Rehberg,9.72 km
2497234638,Üssere Fisistock,2945,7.7043542,46.473482700000005,1,Andy Ross,13.05 km
2093985650,Mauerhorn,2944,7.701597,46.387077000000005,0,,
2379541598,Schwarzhorn,2944,9.106627000000001,46.607565,0,,
5304635386,Einshorn,2944,9.2303,46.516180000000006,0,,
452466891,Punta Tropione,2944,10.095327900000001,46.5771852,0,,
3228882879,Chli Muttenhorn,2944,8.4392413,46.540146500000006,0,,
3218622975,Bächenstock,2944,8.6405239,46.6790633,0,,
412731803,Piz Materdell,2944,9.6912886,46.4353003,0,,
2472260303,Gletscherhore,2943,7.489677800000001,46.3898883,0,,
413493426,Daubenhorn,2941,7.6029723,46.388326600000006,0,,
6601294405,Stössenstock,2941,8.4708935,46.7675397,0,,
458861314,Monts Rosets,2940,7.361929300000001,46.0934201,0,,
452507206,Punta di Rims,2940,10.396235800000001,46.544053100000006,0,,
2420719666,Chli Bielenhorn,2940,8.4348886,46.5989148,0,,
1244931594,Grosses Schinhorn,2939,8.2609826,46.3610072,0,,
2267513803,Pizza Grossa,2939,9.670624400000001,46.598599400000005,0,,
2538687092,Piz Forcellina,2939,9.6137571,46.4159012,0,,
452491924,Piz Mon'Ata,2938,10.269494,46.5776326,0,,
1452883225,Schnidehorn,2937,7.392793200000001,46.373066800000004,1,Urs König,12.11 km
7803106642,Gross Schiben,2937,9.2525853,46.9270288,0,,
1235246335,Piz Spadla,2936,10.2943575,46.851142900000006,0,,
5175490924,Wisshorn,2936,7.734503900000001,46.036951,0,,
1131388946,Piz Cazirauns,2935,8.9093364,46.659100200000005,0,,
4966471528,Piz Caschleglia,2935,8.904494,46.651513,0,,
950673919,Piz Minschuns,2934,10.483432800000001,46.5809038,0,,
469964973,Tothorn,2934,7.4991265,46.369908300000006,1,Klaus Jordan,22.03 km
3430338064,Meidspitz,2934,7.6606046,46.227981500000006,0,,
1131389971,Piz Miez,2934,8.917147100000001,46.6547113,0,,
458278715,Mont de la Blana,2934,7.387517300000001,46.0746623,0,,
5369958510,Botta dal Tiroler,2934,9.7509777,46.4834346,0,,
1372361217,Rotstock,2934,8.6098157,46.5846309,0,,
6918494143,Pizzo Fnè,2933,8.1241859,46.23143,0,,
8322050224,Karspitz - Punta Quaira,2933,10.4724666,46.543503400000006,3,Thomas Lechthaler,26.33 km
4758368177,Pizzo Eravedar,2933,9.6307676,46.316672700000005,0,,
4374438499,Wasenhorn,2932,8.4473834,46.7583995,0,,
412731804,Piz Grevasalvas,2932,9.6744409,46.4228329,0,,
6346121666,Leidhorn,2932,9.906030000000001,46.701010000000004,0,,
1708030820,Furtschellas,2932,9.8016541,46.411675200000005,0,,
5152599085,Signal,2932,7.708561400000001,46.1699866,0,,
3442355750,Blackenstock,2931,8.5358895,46.8409637,0,,
6346100630,Piz Fourun,2931,9.9754,46.661060000000006,0,,
1131332980,Piz Glivers Dadens,2931,8.9134563,46.76903,0,,
470618160,Torre Nord di Cameraccio,2930,9.699248800000001,46.2825563,0,,
1244929402,Piccolo Corno Gries,2930,8.3874083,46.452084600000006,0,,
1373126954,Tour de Prazon,2929,6.895379800000001,46.108782500000004,0,,
1136586397,Petite Dent de Morcles,2929,7.069808200000001,46.2016221,1,Jerry Berchtold,14.57 km
5012660508,Flimspitze,2929,10.3454373,46.984652000000004,0,,
666977111,Bärenhorn,2929,9.232007000000001,46.5755124,0,,
26864560,Schwarzhorn,2928,8.075555600000001,46.686109300000005,0,,
286930120,Urirotstock,2928,8.5351237,46.861814700000004,6,Benjamin Herger,13.25 km
1506078891,Battel,2928,7.999176200000001,45.985398800000006,0,,
3008915122,Hundshorn,2928,7.806285300000001,46.542709,1,Klaus Jordan,9.48 km
363833602,Piz Badus,2928,8.663580000000001,46.622550000000004,0,,
6174026358,Piz Caschanella,2928,10.0396707,46.5533379,0,,
632726853,Piz Mottana,2928,10.2887185,46.8903509,0,,
3337464963,Piz d'Emmat Dadaint,2927,9.703994400000001,46.440642000000004,0,,
511103771,Pointe de la Plaine Morte,2927,7.4867974,46.370759,71,Michel Berset,60.29 km
393165629,Riffelhorn,2927,7.7579416,45.982161500000004,0,,
1131337674,Piz Tgietschen,2926,8.9417804,46.776319300000004,0,,
1426126743,Piz Chöglias,2926,10.2942683,46.892910900000004,0,,
26862818,Eggishorn,2926,8.0946297,46.4314948,4,Martin Bühler,211.70 km
5775645989,Gärsthorn,2926,7.9167813,46.3439082,0,,
459849525,Palanche de la Cretta,2926,7.464524000000001,46.094237400000004,0,,
7803470508,Atlas,2925,9.2393298,46.8974843,0,,
1372958186,Pizzo Fiorina,2925,8.4656427,46.443825200000006,0,,
1244932132,Poncione di Manió,2925,8.4359625,46.496849700000006,0,,
1372958499,Pizzo San Giacomo,2924,8.4677529,46.4555912,0,,
459849768,Mont Brun,2924,7.265014300000001,46.3403882,0,,
1244929579,Mährenhorn,2923,8.3108777,46.6917757,0,,
459849797,Bec de la Montau,2922,7.3476302,46.128763500000005,0,,
4580358480,Adlerflüe,2922,7.7004257,46.146416900000006,0,,
1373125955,Tour des Rousses,2921,6.8869194,46.1004755,0,,
5023059916,Pizzo Fiorera,2921,8.4661968,46.3769999,0,,
1234208854,Piz Champatsch,2920,10.2712207,46.839881600000005,0,,
4666795536,Arpelihore,2920,7.308322,46.3516692,0,,
517705210,Cima di Ruggiolo,2919,10.1347319,46.381738600000006,0,,
8303601869,Kleiner Tartscher Kopf - Cima Piccola di Tarres,2918,10.4737896,46.5509598,0,,
3780110586,Piz Tschüffer,2918,10.0014252,46.472339700000006,0,,
1372729040,Pizzo di Trubinasca,2918,9.573921,46.298283100000006,0,,
2473200113,Piz Amalia,2918,10.330857100000001,46.680696100000006,0,,
462691375,Chleine Huwetz,2918,8.0807211,46.3264888,0,,
452486612,Pizzo Murtaruo,2918,10.1624724,46.6157179,0,,
459849647,Dent Favre,2917,7.103729800000001,46.2107721,0,,
1235245754,Piz Soèr,2917,10.2829181,46.842320300000004,0,,
3711980297,Kleines Schinhorn,2917,8.2624524,46.362974200000004,0,,
1372737242,Piz Valletta,2917,9.7317473,46.4842589,0,,
471229815,Cima di Vartegna,2916,10.007163100000001,46.2813068,0,,
2828463972,La Maya,2916,7.4922101,46.1716631,0,,
3072469319,Rihorn,2916,7.8733699,46.169063300000005,0,,
2472027772,Vord. Zinggenstock,2915,8.257974200000001,46.5544699,0,,
3004591221,Pizzo del Ramulazz,2915,9.0957706,46.399938600000006,0,,
479097399,Bächistock,2914,8.9888812,46.9928144,0,,
4401592947,Mont Miné,2914,7.5581982,46.0286028,0,,
474773674,Ochsehorn,2912,7.940902,46.220493700000006,0,,
3004585189,Piz di Strega,2912,9.0872334,46.3888599,0,,
992454931,Signalhorn,2911,7.746133,46.255190000000006,0,,
1372363833,Piz Acletta,2911,8.7995202,46.731453,1,Andrew Forbes,84.70 km
1217494568,Uratstock,2911,8.4351509,46.754834900000006,0,,
1244933159,Pizzo Cristallina,2911,8.5367972,46.464733300000006,0,,
1372363611,Sunnig Wichel,2910,8.6835366,46.712561900000004,0,,
642988868,Pizzet,2910,9.9273331,46.620267500000004,0,,
808269408,Rottällihorn,2910,8.4654827,46.5434549,0,,
3653166914,Piz Sursass,2909,10.1766225,46.7334338,0,,
1938478755,Piz Urtiola,2909,10.399980300000001,46.638468700000004,4,Thomas Conzett,12.99 km
410443802,Piz dal Märc,2909,9.545431500000001,46.3710996,0,,
2896258646,Leidbachhorn,2908,9.8218864,46.721515200000006,0,,
3780110150,Piz dal Fain,2908,9.988851400000001,46.4699557,0,,
262501283,Quille du Diable ou Tour Saint-Martin,2908,7.224651000000001,46.3094741,0,,
2377824615,Guraletschhorn,2908,9.150888,46.564393,0,,
3732066447,Piz Uter,2907,10.001614100000001,46.5691008,0,,
1455439875,Pizzo Forno,2907,8.7770364,46.433066200000006,0,,
8736551170,Piz Terza,2907,10.3987139,46.6381844,4,Thomas Conzett,12.99 km
2538719469,Piz Neir,2906,9.68012,46.48442,0,,
3918366571,Lenzerhorn,2906,9.595127600000001,46.7090126,1,Pascal Hörler,7.78 km
2316977914,Sex de Marinda,2906,7.5514476,46.1497242,2,Yann Fischer,2.36 km
1131391214,Tuor Denter Corns,2905,8.911138900000001,46.655978000000005,0,,
1244934244,Pizzo Nero,2904,8.410997,46.4925233,0,,
3453702648,Cima di Camutsch,2904,9.5060033,46.436968300000004,0,,
459849697,Tête à Pierre Grept,2904,7.1552397,46.252751100000005,0,,
1458176577,Marscholhorn / Piz Moésola NE,2904,9.142965100000001,46.495043,0,,
478790501,Vrenelisgärtli,2903.9,9.0172557,47.007927200000005,7,Thomas Conzett,27.47 km
7886386668,Corn Diavolezza,2903,9.9678875,46.416619700000005,0,,
687555360,Mont Fourchon,2902,7.133024300000001,45.8682339,0,,
517704696,Monte Combolo,2902,10.0439474,46.2296683,0,,
1372748441,Fallaschkopf - Cima di Vallazza,2902,10.474686100000001,46.5666535,0,,
479098999,Ruchen,2901,9.0013565,47.010617800000006,0,,
8009662574,Grand Chavalard,2901,7.113117600000001,46.1786857,0,,
672921165,Rotstöckli,2901,8.4256895,46.7776149,3,Urs Meli,23.66 km
955211062,Mäderhorn,2900,8.0704101,46.2584746,0,,
1909485809,Grande Chenalette,2900,7.1645373,45.875531800000005,0,,
1244930854,Giglistock,2900,8.386333,46.709700000000005,0,,
5152599070,Borterhorn,2900,7.764008,46.225542000000004,0,,
459849643,Grand Chavalard,2899,7.1131085,46.178717500000005,0,,
2999434606,Piz da Termin,2899,9.0819872,46.3488911,0,,
3711980306,Unter Schinhorn,2898,8.2522698,46.360337300000005,0,,
853333340,Zervreilahorn,2898,9.060825900000001,46.550576500000005,0,,
632726840,Spi d'Ursanna,2898,10.277559400000001,46.8878136,0,,
896395614,Laaxer Stöckli / Piz Grisch,2898,9.204134400000001,46.883093900000006,0,,
517706581,Pizzo Confine,2897,10.143996300000001,46.4281628,0,,
4077344093,Culmatsch,2897,8.713898200000001,46.6910972,0,,
1130829486,Piz Muraun,2897,8.9061798,46.6720823,0,,
452491926,Monte Forcola,2896,10.3519471,46.5558713,0,,
4919035344,Grionkopf - Cima di Grion,2896,10.441763400000001,46.7671306,0,,
6346080249,Piz Müsella,2896,9.917300000000001,46.6569,0,,
7667597742,Zwillinge,2896,10.0184943,46.904619000000004,0,,
381026879,Corne de Sorebois,2895,7.586609800000001,46.150870100000006,227,Gérald Maret,59.05 km
2696589070,Grübelekopf,2894,10.389481,47.0005443,0,,
1244929524,Tierhörnli,2894,7.589714600000001,46.4261387,0,,
1372739662,Inner Schwarzhorn,2894,9.3584105,46.5071254,0,,
5152598454,Gross Kastel,2893,7.7562189,46.116822000000006,0,,
3059441848,Nüschenstock,2893,9.0182461,46.868508000000006,0,,
459849471,Sex Rouge (Anzère),2893,7.3761609,46.332826100000005,0,,
1458176568,Cima della Bianca,2893,8.8629566,46.572985,0,,
5152599119,Horn,2892,7.7790113,46.2023531,0,,
3711980298,Mittelberg - Cima Orientale,2891,8.264571100000001,46.3584934,0,,
4023578241,Roggenhorn,2891,10.0082217,46.8343341,0,,
599695032,Ritzihorn,2891,8.1968241,46.487444,0,,
6233874876,Poncione di Manió (anticima est),2890,8.4403679,46.4958943,0,,
1244934361,Wildgärst,2890,8.0743627,46.692769500000004,1,Peter Vogler,9.08 km
1372741655,Aussere Schwarzhorner,2890,9.360325900000001,46.5213182,0,,
1131351838,Piz Gren,2890,9.0227617,46.677609200000006,0,,
3400248360,Hirli,2890,7.69688,45.990238500000004,1,Amedee Julen,13.25 km
470618159,Torre Centrale di Cameraccio,2889,9.6986793,46.281668800000006,0,,
1244931047,Hüenerstock,2889,8.483465200000001,46.5322465,0,,
4243545871,Bürkelspitzen,2888,10.3552212,46.992390300000004,0,,
1372792544,Piz Macun,2888,10.1423384,46.7341392,0,,
3218622976,Schijenstock,2888,8.6418757,46.6753828,0,,
1249590107,Wissigstock,2887,8.5068988,46.8454436,3,Pavol Pivarci,18.68 km
4023578236,Schildflue,2887,9.9568627,46.880759700000006,0,,
3107351879,Rothorn,2887,8.248967500000001,46.3405465,0,,
1372741769,Guggernüll,2886,9.2710598,46.5232219,0,,
853333307,Valserhorn,2885,9.2082339,46.5603859,0,,
1372735718,Motta Radonda,2885,9.6791236,46.4287484,0,,
2637917659,Le Génépi,2884,7.044226200000001,46.0248317,0,,
7099454940,Dents du Grand Lé,2884,7.1579736,45.901003200000005,0,,
6728052575,Piz Paradis,2884,8.7353432,46.6114198,0,,
4870018177,Schinetahörner,2883,9.566669800000001,46.429290200000004,0,,
6292305837,Westliche Plattenspitze,2883,10.011286400000001,46.9005622,0,,
950673893,Piz Lad,2882,10.4096457,46.571046700000004,0,,
1200710082,Sonntagspitze,2882,10.0519732,46.8767762,0,,
2420719668,Hanibal Turm,2882,8.419658700000001,46.5993629,0,,
2473200054,Piz Mezdi,2882,10.333096900000001,46.686899600000004,0,,
851756182,Piz Fess,2881,9.289870200000001,46.728017400000006,0,,
1131392163,Piz Santeri,2881,8.9254297,46.6552268,0,,
918606089,(Les Otanes),2880,7.3082172,45.9969917,0,,
950673896,Piz Val Gronda,2880,10.4526638,46.562450000000005,0,,
6918494142,Pizzo d'Avino,2880,8.1177013,46.2364352,0,,
653903054,Gross Sidelhorn,2879,8.2852256,46.5409019,0,,
519783857,Chrachenhorn (2891 M),2878.7656250,9.814517,46.688286100000006,0,,
2472028122,Alplistock,2878,8.2819343,46.5949341,0,,
6028733692,Piz dal Fuorn,2878,10.212402,46.6795556,0,,
3711980299,Mittelberg,2878,8.2649969,46.3571071,0,,
517704720,Pizzo Malgina,2877,10.056177100000001,46.2430692,0,,
427753013,March Violenhorn,2876,7.7920381,46.2430431,0,,
495970437,Risihorn,2875,8.1544282,46.4630008,1,Kris Versluis,31.42 km
3086481604,Gwasmet,2875,8.8124556,46.747277100000005,0,,
2379541585,Piz Serenastga,2874,9.146477,46.633337000000004,0,,
2638194494,Pointe des Écandies,2873,7.0390772,46.0150905,0,,
4343423264,Ofen,2873,9.2124345,46.892299200000004,0,,
1244934190,Poncione di Vallegia,2873,8.4991907,46.465214700000004,0,,
2578063459,Kleines Egghorn,2872,10.085295200000001,46.8781545,0,,
8302592950,Isentällispitz,2872,9.9619657,46.9134839,0,,
457015998,Dosso Mottascio,2872,9.2760386,46.3946321,0,,
5304635385,Piz Cavriola,2872,9.20916,46.50444,0,,
446188475,Tschimas Da Tisch,2872,9.8152223,46.6165729,1,Rolf Erhardt,9.45 km
3075889260,Gross Haupt,2872,7.815089500000001,46.0987171,0,,
301628267,Bettmergrat,2871,8.08259,46.4179198,13,Frank Schaufuss,99.22 km
2472027771,Desorstock,2871,8.243243900000001,46.556583,0,,
6799501968,Piz de Val Rossa,2871,9.2364174,46.471824000000005,0,,
4242778511,Greitspitze,2871,10.3340063,46.9701055,0,,
2531749348,Balmahorn,2870,8.0759258,46.137840800000006,0,,
1372791334,Pizza Naira,2870,9.611992800000001,46.727719400000005,0,,
918917322,Schwarzbergschopf,2870,7.9427307,46.0435985,0,,
366139259,Pointe du Génévrier,2870,6.855515100000001,46.037561100000005,0,,
2402827680,Piz Balzet,2869,9.664117300000001,46.337034700000004,0,,
3453702646,Chlin Horn,2869,9.4977666,46.4353264,0,,
2486385562,Gallauidstöck,2869,8.234899500000001,46.652065400000005,0,,
2379541564,Breitengrat,2869,9.136564,46.625477000000004,0,,
977647305,Piz Glims,2868,10.0680884,46.7871499,0,,
3073199793,Wannihorn,2868,8.2050753,46.329308000000005,0,,
5132689838,Grand Mont Mort,2867,7.1786083,45.8635651,0,,
3474031394,Nufenenstock,2866,8.3876345,46.4667357,0,,
2377859231,Wissgrätli,2866,9.120489000000001,46.55378,0,,
1372738883,Punta Scaramellini,2865,9.3733498,46.5039614,0,,
7667597738,Westlicher Kromerspitz,2865,10.0222412,46.8977659,0,,
2089900062,Poncione di Braga,2864,8.5429493,46.434396,0,,
1455439864,Pizzo Barone,2864,8.742109300000001,46.405732400000005,1,Reto Compagnoni,10.87 km
6260671688,Piz Curtinatsch,2864,10.373492200000001,46.7609749,0,,
2379541596,Satteltichopf,2864,9.143659000000001,46.628881,0,,
373462342,Becca de Sery,2863,7.280851500000001,46.011311600000006,0,,
1372955297,Pizzo Bièla - Wandlfuhhorn,2863,8.4641625,46.3447717,0,,
1372737605,Muot Cotschen,2863,9.7280159,46.4898789,0,,
3474030591,Fülhorn,2863,8.352413,46.459204500000006,0,,
3453516590,Schwarzseehorn,2862,9.460108,46.4138887,0,,
1372215844,Dündehore,2862,7.729519700000001,46.520138800000005,0,,
2091635386,Lämmernhorn,2862,7.5717026,46.4063637,0,,
7154544131,Sass Corviglia,2862,9.799544500000001,46.5160933,0,,
6376741963,Lattenhorn,2861,9.30128,46.50072,0,,
262875534,Parpaner Rothorn,2861,9.5975502,46.742392,80,Johannes Engewald,47.38 km
666959603,Crap Grisch-Planggenhorn,2861,9.232704700000001,46.654831,0,,
5011909900,P.2860,2860,9.004589000000001,47.008532800000005,2,Markus Egli,13.12 km
831492688,Tällistock,2860,8.4012664,46.5517346,0,,
1652117772,Crappa da Tocf,2860,9.683152900000001,46.4885609,0,,
4023578237,Fergenhörner,2860,9.9681388,46.878589000000005,0,,
8311786301,Gross Schild,2860,9.95224,46.882228000000005,0,,
457161189,Cima di Pian della Vacca,2859,9.4544017,46.420500700000005,0,,
6233894482,Poncione di Cassina Baggio,2859,8.452608,46.500597000000006,0,,
6346065477,Botta Cuolm,2858,9.93595,46.621430000000004,0,,
4937172148,Piz Vignun,2858,9.2388986,46.488427400000006,0,,
7450039644,Piz Tgietschen,2857,9.0209308,46.645992,0,,
7283087781,Bettmerhorn,2857,8.0802035,46.414349900000005,9,Thomas Blatter,95.01 km
457015989,Cima di Barna,2857,9.263711200000001,46.4205173,0,,
3783174508,Piz Padella,2857,9.8363166,46.5325111,0,,
6918494138,Cima di Vallaperta,2857,8.1171653,46.2854049,0,,
307261224,Punta Valgrande,2856,8.1388826,46.226152600000006,0,,
517705060,Cima di Rosso,2856,10.106833700000001,46.340812,0,,
1372216873,Geschinerstock,2856,8.2580618,46.529442800000005,1,Bruno Bohren,141.60 km
6854007686,Cima da Murtaira,2856,9.692265800000001,46.364279200000006,0,,
666959604,Tällihorn,2856,9.2393063,46.6456904,0,,
7274777993,Testa Verde,2856,7.1976113,45.8703507,0,,
566646194,Chäste,2855,7.8985821,46.143166,0,,
457015992,La Colma,2855,9.262432500000001,46.4228557,0,,
2091610170,Grosses Plattenhorn,2855,7.6340161,46.4030956,1,Patrick Saluz,44.26 km
1372228646,Schlaflägerstöck,2855,8.242830600000001,46.6472495,0,,
6517040633,Piz Alv,2854,9.4927937,46.526017,0,,
5304668024,Piz Motton,2854,9.22541,46.466590000000004,0,,
1373140797,Simpeler Weizstadel,2854,7.984359800000001,46.2102118,0,,
666996774,Rotbühelspitze,2853,9.9590771,46.916040200000005,0,,
1372800550,Piz dals Corvs,2853,10.4234639,46.7868853,0,,
3924392266,Zwächten,2853,8.6858529,46.7288044,0,,
6292305838,Östliche Plattenspitze,2852,10.0178525,46.902033800000005,0,,
707814625,Roc d'Orzival,2852,7.538011900000001,46.195220500000005,11,François Udressy,11.79 km
2377859223,Dachberg,2852,9.103401,46.591866,0,,
992460098,Ergischalphorn,2851,7.739641700000001,46.2612418,3,Thomas Kalbermatter,12.11 km
3337464964,Piz d'Emmat Dadora,2851,9.6998259,46.446088,0,,
6346108365,Muot da l'Hom,2851,9.94884,46.66796,0,,
1131349819,Hireli,2850,9.0178265,46.676578600000006,0,,
459849648,Tita Sèri,2850,7.0939329,46.198416,0,,
4870018178,Wengahorn,2849,9.5676539,46.433069100000004,0,,
3059466904,Rüchi,2849,9.0181149,46.8728518,0,,
3008947969,Wild Andrist,2849,7.7966183,46.5479889,0,,
851756173,Piz Signina,2848,9.2841202,46.724155800000005,0,,
808142907,Rote Totz,2848,7.5998448,46.4156883,0,,
8331366467,Piz Sielva,2848,10.4879947,46.589496600000004,0,,
1475333050,Schafberg,2848,7.6691035,46.370124600000004,1,werner messerschmidt,21.75 km
3425203847,Piz da Staz,2847,9.870172100000001,46.473064,0,,
4278366547,Piz Tanelin,2847,8.7180768,46.571399,0,,
2533998522,Galmenhorn,2846,7.9820194,46.0210438,0,,
459849685,Tête aux Veillon,2846,7.144638700000001,46.241114800000005,0,,
5983377245,Cima da Cavii,2846,9.522181900000001,46.366737900000004,0,,
457016018,Monte Balniscio / Pizzo dei Rossi,2846,9.2578432,46.426592,0,,
452067524,Piz dil Crot - Pizzo del Crot,2846,9.4286592,46.4920253,0,,
3682999397,Hofathorn,2845,7.940218600000001,46.373784400000005,1,Gérald Maret,17.68 km
1372363596,Schijen,2845,8.684364200000001,46.7117285,0,,
2682087511,Petit Ruan,2845,6.8919021,46.125408,0,,
1244929325,Forcella,2845,8.419474600000001,46.4920089,0,,
